$GNRMC,,,,,,,,,,,,*55
$GNGGA,,,,,,,,,,,,,,*48
$GPGSA,A,1,,,,,,,,,,,,,,,*1E
$GPGSV,1,1,0,,,,,,,,,,,,,,,,*49
$GNVTG,,,,,,,,,*60
$GNGST,,,,,,,,*49
$GNZDA,,,,,,*56
$GNEBP,,,,,,M*13
$GNRMC,011851.00,A,4915.6051097,N,12315.3236499,W,0.14,0.00,140725,,,A*5F
$GNGGA,011851.00,4915.6051097,N,12315.3236499,W,1,06,5.9,71.779,M,-19.037,M,1.0,*56
$GPGSA,A,3,03,04,06,,,,,,,,,,9.4,5.9,7.3*36
$GLGSA,A,3,72,88,,,,,,,,,,,9.4,5.9,7.3*2E
$GAGSA,A,3,29,,,,,,,,,,,,9.4,5.9,7.3*2D
$GBGSA,A,3,,,,,,,,,,,,,9.4,5.9,7.3*25
$GPGSV,1,1,03,03,82,224,44,04,53,275,46,06,17,322,43,,,,*43
$GLGSV,1,1,02,72,70,004,35,88,29,295,38,,,,,,,,*69
$GAGSV,1,1,01,29,67,276,43,,,,,,,,,,,,*57
$GNVTG,0.00,T,,M,0.14,N,0.27,K,A*23
$GNGST,011851.00,0.247,,,,21.898,4.832,30.514*6E
$GNZDA,011851.00,14,07,2025,00,00*73
$GNEBP,,,,,,M*13
$GNRMC,011852.00,A,4915.6050971,N,12315.3236458,W,0.14,0.00,140725,,,A*51
$GNGGA,011852.00,4915.6050971,N,12315.3236458,W,1,06,5.9,71.736,M,-19.037,M,2.0,*50
$GPGSA,A,3,03,04,06,,,,,,,,,,9.4,5.9,7.3*36
$GLGSA,A,3,72,88,,,,,,,,,,,9.4,5.9,7.3*2E
$GAGSA,A,3,29,,,,,,,,,,,,9.4,5.9,7.3*2D
$GBGSA,A,3,,,,,,,,,,,,,9.4,5.9,7.3*25
$GPGSV,1,1,03,03,82,224,44,04,53,275,46,06,17,322,43,,,,*43
$GLGSV,1,1,02,72,70,004,35,88,29,295,37,,,,,,,,*66
$GAGSV,1,1,01,29,67,276,43,,,,,,,,,,,,*57
$GNVTG,0.00,T,,M,0.14,N,0.27,K,A*23
$GNGST,011852.00,0.256,,,,31.879,7.012,44.418*64
$GNZDA,011852.00,14,07,2025,00,00*70
$GNEBP,,,,,,M*13
$GNRMC,011853.00,A,4915.6053424,N,12315.3237180,W,0.07,0.00,140725,,,A*5D
$GNGGA,011853.00,4915.6053424,N,12315.3237180,W,1,06,5.9,72.329,M,-19.037,M,1.0,*54
$GPGSA,A,3,03,04,06,,,,,,,,,,9.4,5.9,7.3*36
$GLGSA,A,3,72,88,,,,,,,,,,,9.4,5.9,7.3*2E
$GAGSA,A,3,29,,,,,,,,,,,,9.4,5.9,7.3*2D
$GBGSA,A,3,,,,,,,,,,,,,9.4,5.9,7.3*25
$GPGSV,1,1,03,03,82,224,44,04,53,275,45,06,17,322,43,,,,*40
$GLGSV,1,1,02,72,70,004,35,88,29,295,37,,,,,,,,*66
$GAGSV,1,1,01,29,67,276,43,,,,,,,,,,,,*57
$GNVTG,0.00,T,,M,0.07,N,0.13,K,A*26
$GNGST,011853.00,0.459,,,,18.014,3.954,25.095*6D
$GNZDA,011853.00,14,07,2025,00,00*71
$GNEBP,,,,,,M*13
$GNRMC,011854.00,A,4915.6053166,N,12315.3237023,W,0.16,0.00,140725,,,A*51
$GNGGA,011854.00,4915.6053166,N,12315.3237023,W,1,06,5.9,72.225,M,-19.037,M,1.0,*55
$GPGSA,A,3,03,04,06,,,,,,,,,,9.4,5.9,7.3*36
$GLGSA,A,3,72,88,,,,,,,,,,,9.4,5.9,7.3*2E
$GAGSA,A,3,29,,,,,,,,,,,,9.4,5.9,7.3*2D
$GBGSA,A,3,,,,,,,,,,,,,9.4,5.9,7.3*25
$GPGSV,1,1,03,03,82,224,44,04,53,275,46,06,17,322,43,,,,*43
$GLGSV,1,1,02,72,70,005,35,88,29,295,37,,,,,,,,*67
$GAGSV,1,1,01,29,67,276,44,,,,,,,,,,,,*50
$GNVTG,0.00,T,,M,0.16,N,0.29,K,A*2F
$GNGST,011854.00,0.617,,,,21.907,4.793,30.515*68
$GNZDA,011854.00,14,07,2025,00,00*76
$GNEBP,,,,,,M*13
$GNRMC,011855.00,A,4915.6052860,N,12315.3236845,W,0.22,0.00,140725,,,A*50
$GNGGA,011855.00,4915.6052860,N,12315.3236845,W,1,06,5.9,72.098,M,-19.037,M,1.0,*57
$GPGSA,A,3,03,04,06,,,,,,,,,,9.4,5.9,7.3*36
$GLGSA,A,3,72,88,,,,,,,,,,,9.4,5.9,7.3*2E
$GAGSA,A,3,29,,,,,,,,,,,,9.4,5.9,7.3*2D
$GBGSA,A,3,,,,,,,,,,,,,9.4,5.9,7.3*25
$GPGSV,1,1,03,03,82,223,44,04,53,275,45,06,17,322,43,,,,*47
$GLGSV,1,1,02,72,70,005,35,88,29,295,37,,,,,,,,*67
$GAGSV,1,1,01,29,67,276,43,,,,,,,,,,,,*57
$GNVTG,0.00,T,,M,0.22,N,0.41,K,A*26
$GNGST,011855.00,0.726,,,,31.891,6.954,44.418*6D
$GNZDA,011855.00,14,07,2025,00,00*77
$GNEBP,,,,,,M*13
$GNRMC,011856.00,A,4915.6057177,N,12315.3238410,W,0.14,0.00,140725,,,A*5E
$GNGGA,011856.00,4915.6057177,N,12315.3238410,W,1,06,5.9,73.172,M,-19.037,M,1.0,*58
$GPGSA,A,3,03,04,06,,,,,,,,,,9.4,5.9,7.3*36
$GLGSA,A,3,72,88,,,,,,,,,,,9.4,5.9,7.3*2E
$GAGSA,A,3,29,,,,,,,,,,,,9.4,5.9,7.3*2D
$GBGSA,A,3,,,,,,,,,,,,,9.4,5.9,7.3*25
$GPGSV,1,1,03,03,82,223,44,04,53,275,45,06,17,322,43,,,,*47
$GLGSV,1,1,02,72,70,005,36,88,29,295,36,,,,,,,,*65
$GAGSV,1,1,01,29,67,276,43,,,,,,,,,,,,*57
$GNVTG,0.00,T,,M,0.14,N,0.27,K,A*23
$GNGST,011856.00,0.847,,,,18.020,3.921,25.095*6E
$GNZDA,011856.00,14,07,2025,00,00*74
$GNEBP,,,,,,M*13
$GNRMC,011857.00,A,4915.6057623,N,12315.3238671,W,0.14,0.00,140725,,,A*5C
$GNGGA,011857.00,4915.6057623,N,12315.3238671,W,1,06,5.9,73.259,M,-19.037,M,1.0,*50
$GPGSA,A,3,03,04,06,,,,,,,,,,9.4,5.9,7.3*36
$GLGSA,A,3,72,88,,,,,,,,,,,9.4,5.9,7.3*2E
$GAGSA,A,3,29,,,,,,,,,,,,9.4,5.9,7.3*2D
$GBGSA,A,3,,,,,,,,,,,,,9.4,5.9,7.3*25
$GPGSV,1,1,03,03,82,223,44,04,53,275,46,06,17,322,43,,,,*44
$GLGSV,1,1,02,72,70,005,36,88,29,295,36,,,,,,,,*65
$GAGSV,1,1,01,29,67,276,44,,,,,,,,,,,,*50
$GNVTG,0.00,T,,M,0.14,N,0.27,K,A*23
$GNGST,011857.00,0.985,,,,21.915,4.753,30.515*60
$GNZDA,011857.00,14,07,2025,00,00*75
$GNEBP,,,,,,M*13
$GNRMC,011858.00,A,4915.6058156,N,12315.3238829,W,0.13,0.00,140725,,,A*5D
$GNGGA,011858.00,4915.6058156,N,12315.3238829,W,1,06,5.9,73.343,M,-19.037,M,1.0,*5C
$GPGSA,A,3,03,04,06,,,,,,,,,,9.4,5.9,7.3*36
$GLGSA,A,3,72,88,,,,,,,,,,,9.4,5.9,7.3*2E
$GAGSA,A,3,29,,,,,,,,,,,,9.4,5.9,7.3*2D
$GBGSA,A,3,,,,,,,,,,,,,9.4,5.9,7.3*25
$GPGSV,1,1,03,03,82,223,44,04,53,275,45,06,17,322,43,,,,*47
$GLGSV,1,1,02,72,70,005,36,88,29,295,36,,,,,,,,*65
$GAGSV,1,1,01,29,67,276,43,,,,,,,,,,,,*57
$GNVTG,0.00,T,,M,0.13,N,0.25,K,A*26
$GNGST,011858.00,0.749,,,,31.903,6.897,44.419*6C
$GNZDA,011858.00,14,07,2025,00,00*7A
$GNEBP,,,,,,M*13
$GNRMC,011859.00,A,4915.6060113,N,12315.3239480,W,0.16,0.00,140725,,,A*5D
$GNGGA,011859.00,4915.6060113,N,12315.3239480,W,1,06,5.9,73.812,M,-19.036,M,1.0,*57
$GPGSA,A,3,03,04,06,,,,,,,,,,9.4,5.9,7.3*36
$GLGSA,A,3,72,88,,,,,,,,,,,9.4,5.9,7.3*2E
$GAGSA,A,3,29,,,,,,,,,,,,9.4,5.9,7.3*2D
$GBGSA,A,3,,,,,,,,,,,,,9.4,5.9,7.3*25
$GPGSV,1,1,03,03,82,223,44,04,53,275,46,06,17,322,43,,,,*44
$GLGSV,1,1,02,72,70,005,36,88,29,295,36,,,,,,,,*65
$GAGSV,1,1,01,29,67,276,44,,,,,,,,,,,,*50
$GNVTG,0.00,T,,M,0.16,N,0.29,K,A*2F
$GNGST,011859.00,0.879,,,,18.027,3.889,25.095*68
$GNZDA,011859.00,14,07,2025,00,00*7B
$GNEBP,,,,,,M*13
$GNRMC,011900.00,A,4915.6060597,N,12315.3239847,W,0.14,0.00,140725,,,A*5D
$GNGGA,011900.00,4915.6060597,N,12315.3239847,W,1,06,5.9,73.902,M,-19.036,M,1.0,*55
$GPGSA,A,3,03,04,06,,,,,,,,,,9.4,5.9,7.3*36
$GLGSA,A,3,72,88,,,,,,,,,,,9.4,5.9,7.3*2E
$GAGSA,A,3,29,,,,,,,,,,,,9.4,5.9,7.3*2D
$GBGSA,A,3,,,,,,,,,,,,,9.4,5.9,7.3*25
$GPGSV,1,1,03,03,82,223,44,04,53,275,45,06,17,322,43,,,,*47
$GLGSV,1,1,02,72,70,005,36,88,29,295,36,,,,,,,,*65
$GAGSV,1,1,01,29,67,276,44,,,,,,,,,,,,*50
$GNVTG,0.00,T,,M,0.14,N,0.27,K,A*23
$GNGST,011900.00,0.930,,,,21.923,4.713,30.515*6C
$GNZDA,011900.00,14,07,2025,00,00*76
$GNEBP,,,,,,M*13
$GNRMC,011901.00,A,4915.6061120,N,12315.3240067,W,0.16,0.00,140725,,,A*53
$GNGGA,011901.00,4915.6061120,N,12315.3240067,W,1,06,5.9,73.990,M,-19.036,M,1.0,*52
$GPGSA,A,3,03,04,06,,,,,,,,,,9.4,5.9,7.3*36
$GLGSA,A,3,72,88,,,,,,,,,,,9.4,5.9,7.3*2E
$GAGSA,A,3,29,,,,,,,,,,,,9.4,5.9,7.3*2D
$GBGSA,A,3,,,,,,,,,,,,,9.4,5.9,7.3*25
$GPGSV,1,1,03,03,82,223,44,04,53,275,45,06,17,322,43,,,,*47
$GLGSV,1,1,02,72,70,005,36,88,29,295,37,,,,,,,,*64
$GAGSV,1,1,01,29,67,276,43,,,,,,,,,,,,*57
$GNVTG,0.00,T,,M,0.16,N,0.30,K,A*27
$GNGST,011901.00,0.897,,,,31.915,6.839,44.419*6E
$GNZDA,011901.00,14,07,2025,00,00*77
$GNEBP,,,,,,M*13
$GNRMC,011902.00,A,4915.6061168,N,12315.3240099,W,0.06,0.00,140725,,,A*5C
$GNGGA,011902.00,4915.6061168,N,12315.3240099,W,1,06,5.9,73.969,M,-19.036,M,1.0,*5A
$GPGSA,A,3,03,04,06,,,,,,,,,,9.4,5.9,7.3*36
$GLGSA,A,3,72,88,,,,,,,,,,,9.4,5.9,7.3*2E
$GAGSA,A,3,29,,,,,,,,,,,,9.4,5.9,7.3*2D
$GBGSA,A,3,,,,,,,,,,,,,9.4,5.9,7.3*25
$GPGSV,1,1,03,03,82,223,44,04,53,275,45,06,17,322,43,,,,*47
$GLGSV,1,1,02,72,70,005,36,88,29,295,37,,,,,,,,*64
$GAGSV,1,1,01,29,67,276,44,,,,,,,,,,,,*50
$GNVTG,0.00,T,,M,0.06,N,0.12,K,A*26
$GNGST,011902.00,0.698,,,,18.034,3.856,25.095*66
$GNZDA,011902.00,14,07,2025,00,00*74
$GNEBP,,,,,,M*13
$GNRMC,011903.00,A,4915.6061331,N,12315.3240279,W,0.13,0.00,140725,,,A*5B
$GNGGA,011903.00,4915.6061331,N,12315.3240279,W,1,06,5.9,73.994,M,-19.036,M,1.0,*5B
$GPGSA,A,3,03,04,06,,,,,,,,,,9.4,5.9,7.3*36
$GLGSA,A,3,72,88,,,,,,,,,,,9.4,5.9,7.3*2E
$GAGSA,A,3,29,,,,,,,,,,,,9.4,5.9,7.3*2D
$GBGSA,A,3,,,,,,,,,,,,,9.4,5.9,7.3*25
$GPGSV,1,1,03,03,82,223,44,04,53,275,45,06,17,322,43,,,,*47
$GLGSV,1,1,02,72,70,005,36,88,29,295,38,,,,,,,,*6B
$GAGSV,1,1,01,29,67,276,43,,,,,,,,,,,,*57
$GNVTG,0.00,T,,M,0.13,N,0.23,K,A*20
$GNGST,011903.00,0.488,,,,21.931,4.674,30.515*62
$GNZDA,011903.00,14,07,2025,00,00*75
$GNEBP,,,,,,M*13
$GNRMC,011904.00,A,4915.6061464,N,12315.3240283,W,0.07,0.00,140725,,,A*5B
$GNGGA,011904.00,4915.6061464,N,12315.3240283,W,1,06,5.9,74.006,M,-19.036,M,1.0,*5B
$GPGSA,A,3,03,04,06,,,,,,,,,,9.4,5.9,7.3*36
$GLGSA,A,3,72,88,,,,,,,,,,,9.4,5.9,7.3*2E
$GAGSA,A,3,29,,,,,,,,,,,,9.4,5.9,7.3*2D
$GBGSA,A,3,,,,,,,,,,,,,9.4,5.9,7.3*25
$GPGSV,1,1,03,03,82,223,44,04,53,275,45,06,17,322,43,,,,*47
$GLGSV,1,1,02,72,70,005,35,88,29,295,38,,,,,,,,*68
$GAGSV,1,1,01,29,67,276,43,,,,,,,,,,,,*57
$GNVTG,0.00,T,,M,0.07,N,0.14,K,A*21
$GNGST,011904.00,0.178,,,,31.927,6.781,44.419*6E
$GNZDA,011904.00,14,07,2025,00,00*72
$GNEBP,,,,,,M*13
$GNRMC,011905.00,A,4915.6120149,N,12315.3259613,W,2.46,317.73,140725,,,D*52
$GNGGA,011905.00,4915.6120149,N,12315.3259613,W,5,07,8.2,89.126,M,-19.036,M,1.0,0000*53
$GPGSA,A,3,03,04,06,,,,,,,,,,12.8,8.2,9.8*03
$GLGSA,A,3,72,88,,,,,,,,,,,12.8,8.2,9.8*1B
$GAGSA,A,3,29,,,,,,,,,,,,12.8,8.2,9.8*18
$GBGSA,A,3,,,,,,,,,,,,,12.8,8.2,9.8*10
$GPGSV,1,1,03,03,82,223,44,04,53,275,45,06,17,322,43,,,,*47
$GLGSV,1,1,02,72,70,005,35,88,29,295,40,,,,,,,,*67
$GAGSV,1,1,01,29,67,276,43,,,,,,,,,,,,*57
$GNVTG,317.73,T,,M,2.46,N,4.55,K,D*23
$GNGST,011905.00,1.200,,,,12.609,2.674,17.530*63
$GNZDA,011905.00,14,07,2025,00,00*73
$GNEBP,4915.6092831,N,12315.3241372,W,80.218,M*2F
$GNRMC,011906.00,A,4915.6121731,N,12315.3265319,W,3.53,306.26,140725,,,A*59
$GNGGA,011906.00,4915.6121731,N,12315.3265319,W,1,07,5.9,88.698,M,-19.036,M,1.0,*59
$GPGSA,A,3,03,04,06,,,,,,,,,,9.3,5.9,7.2*30
$GLGSA,A,3,65,72,88,,,,,,,,,,9.3,5.9,7.2*2B
$GAGSA,A,3,29,,,,,,,,,,,,9.3,5.9,7.2*2B
$GBGSA,A,3,,,,,,,,,,,,,9.3,5.9,7.2*23
$GPGSV,1,1,03,03,82,223,44,04,53,275,43,06,17,322,39,,,,*4C
$GLGSV,1,1,03,65,26,296,35,72,70,005,36,88,29,295,38,,,,*56
$GAGSV,1,1,01,29,67,276,41,,,,,,,,,,,,*55
$GNVTG,306.26,T,,M,3.53,N,6.53,K,A*27
$GNGST,011906.00,0.153,,,,16.517,3.489,22.966*64
$GNZDA,011906.00,14,07,2025,00,00*70
$GNEBP,,,,,,M*13
$GNRMC,011907.00,A,4915.6137947,N,12315.3275093,W,1.41,316.19,140725,,,A*5C
$GNGGA,011907.00,4915.6137947,N,12315.3275093,W,1,09,3.3,91.943,M,-19.036,M,1.0,*53
$GPGSA,A,3,03,04,06,09,,,,,,,,,4.8,3.3,3.5*30
$GLGSA,A,3,65,72,88,,,,,,,,,,4.8,3.3,3.5*22
$GAGSA,A,3,29,,,,,,,,,,,,4.8,3.3,3.5*22
$GBGSA,A,3,,,,,,,,,,,,,4.8,3.3,3.5*2A
$GPGSV,1,1,04,03,82,223,44,04,53,275,46,06,17,322,38,09,16,270,37*70
$GLGSV,1,1,03,65,26,296,37,72,70,005,38,88,29,295,45,,,,*50
$GAGSV,1,1,01,29,67,276,41,,,,,,,,,,,,*55
$GNVTG,316.19,T,,M,1.41,N,2.61,K,A*2E
$GNGST,011907.00,0.570,,,,3.407,0.744,4.731*6D
$GNZDA,011907.00,14,07,2025,00,00*71
$GNEBP,,,,,,M*13
$GNRMC,011908.00,A,4915.6127322,N,12315.3276881,W,3.42,0.00,140725,,,D*5B
$GNGGA,011908.00,4915.6127322,N,12315.3276881,W,5,09,3.5,88.213,M,-19.036,M,1.0,0000*58
$GPGSA,A,3,01,03,04,06,09,,,,,,,,4.3,3.5,2.5*3D
$GLGSA,A,3,65,72,88,,,,,,,,,,4.3,3.5,2.5*2E
$GAGSA,A,3,29,,,,,,,,,,,,4.3,3.5,2.5*2E
$GBGSA,A,3,,,,,,,,,,,,,4.3,3.5,2.5*26
$GPGSV,2,1,05,01,27,210,36,03,82,223,45,04,53,275,43,06,17,322,39*7A
$GPGSV,2,2,05,09,16,270,39,,,,,,,,,,,,*4D
$GLGSV,1,1,03,65,26,296,42,72,70,005,38,88,29,295,42,,,,*55
$GAGSV,1,1,01,29,67,276,42,,,,,,,,,,,,*56
$GNVTG,0.00,T,,M,3.42,N,6.34,K,D*22
$GNGST,011908.00,1.163,,,,2.099,0.488,2.925*69
$GNZDA,011908.00,14,07,2025,00,00*7E
$GNEBP,4915.6092831,N,12315.3241372,W,80.218,M*2F
$GNRMC,011909.00,A,4915.6146195,N,12315.3286868,W,2.68,319.92,140725,,,A*57
$GNGGA,011909.00,4915.6146195,N,12315.3286868,W,1,07,3.6,91.980,M,-19.036,M,1.0,*58
$GPGSA,A,3,03,04,06,09,,,,,,,,,5.2,3.6,3.8*33
$GLGSA,A,3,65,72,,,,,,,,,,,5.2,3.6,3.8*21
$GAGSA,A,3,29,,,,,,,,,,,,5.2,3.6,3.8*21
$GBGSA,A,3,,,,,,,,,,,,,5.2,3.6,3.8*29
$GPGSV,1,1,04,03,82,223,45,04,53,275,44,06,17,322,35,09,16,270,36*7F
$GLGSV,1,1,02,65,26,296,39,72,70,005,38,,,,,,,,*6B
$GAGSV,1,1,01,29,67,276,43,,,,,,,,,,,,*57
$GNVTG,319.92,T,,M,2.68,N,4.95,K,A*27
$GNGST,011909.00,0.461,,,,1.199,0.327,1.680*6D
$GNZDA,011909.00,14,07,2025,00,00*7F
$GNEBP,,,,,,M*13
$GNRMC,011910.00,A,4915.6154089,N,12315.3292676,W,3.62,320.54,140725,,,A*5F
$GNGGA,011910.00,4915.6154089,N,12315.3292676,W,1,06,6.2,92.536,M,-19.036,M,1.0,*59
$GPGSA,A,3,03,04,,,,,,,,,,,10.2,6.2,8.1*0B
$GLGSA,A,3,65,72,88,,,,,,,,,,10.2,6.2,8.1*16
$GAGSA,A,3,29,,,,,,,,,,,,10.2,6.2,8.1*16
$GBGSA,A,3,,,,,,,,,,,,,10.2,6.2,8.1*1E
$GPGSV,1,1,02,03,82,223,42,04,53,275,43,,,,,,,,*72
$GLGSV,1,1,03,65,26,296,42,72,70,005,39,88,29,295,36,,,,*57
$GAGSV,1,1,01,29,67,276,42,,,,,,,,,,,,*56
$GNVTG,320.54,T,,M,3.62,N,6.71,K,A*24
$GNGST,011910.00,0.611,,,,1.738,0.546,2.239*69
$GNZDA,011910.00,14,07,2025,00,00*77
$GNEBP,,,,,,M*13
$GNRMC,011911.00,A,4915.6162558,N,12315.3299485,W,3.93,320.77,140725,,,A*58
$GNGGA,011911.00,4915.6162558,N,12315.3299485,W,1,09,3.3,93.697,M,-19.036,M,1.0,*53
$GPGSA,A,3,03,04,06,09,,,,,,,,,4.8,3.3,3.5*30
$GLGSA,A,3,65,72,88,,,,,,,,,,4.8,3.3,3.5*22
$GAGSA,A,3,29,,,,,,,,,,,,4.8,3.3,3.5*22
$GBGSA,A,3,,,,,,,,,,,,,4.8,3.3,3.5*2A
$GPGSV,1,1,04,03,82,223,47,04,53,275,42,06,17,322,41,09,16,270,38*76
$GLGSV,1,1,03,65,26,296,41,72,70,005,38,88,29,295,39,,,,*5A
$GAGSV,1,1,01,29,67,276,43,,,,,,,,,,,,*57
$GNVTG,320.77,T,,M,3.93,N,7.27,K,A*29
$GNGST,011911.00,0.546,,,,3.588,0.790,4.964*6E
$GNZDA,011911.00,14,07,2025,00,00*76
$GNEBP,,,,,,M*13
$GNRMC,011912.00,A,4915.6172991,N,12315.3306112,W,4.65,330.03,140725,,,A*53
$GNGGA,011912.00,4915.6172991,N,12315.3306112,W,1,10,1.7,95.285,M,-19.036,M,1.0,*5B
$GPGSA,A,3,03,04,06,09,,,,,,,,,2.5,1.7,1.8*32
$GLGSA,A,3,65,72,87,88,,,,,,,,,2.5,1.7,1.8*2F
$GAGSA,A,3,29,,,,,,,,,,,,2.5,1.7,1.8*20
$GBGSA,A,3,,,,,,,,,,,,,2.5,1.7,1.8*28
$GPGSV,1,1,04,03,82,222,47,04,53,275,44,06,17,322,39,09,16,270,38*7E
$GLGSV,1,1,04,65,26,296,39,72,70,005,38,87,15,231,36,88,29,295,42*60
$GAGSV,1,1,01,29,67,276,45,,,,,,,,,,,,*51
$GNVTG,330.03,T,,M,4.65,N,8.61,K,A*28
$GNGST,011912.00,0.550,,,,7.572,1.589,10.511*5B
$GNZDA,011912.00,14,07,2025,00,00*75
$GNEBP,,,,,,M*13
$GNRMC,011913.00,A,4915.6185129,N,12315.3313683,W,5.26,326.44,140725,,,A*58
$GNGGA,011913.00,4915.6185129,N,12315.3313683,W,1,11,1.7,97.323,M,-19.036,M,1.0,*5C
$GPGSA,A,3,03,04,06,09,,,,,,,,,2.4,1.7,1.7*3C
$GLGSA,A,3,65,72,87,88,,,,,,,,,2.4,1.7,1.7*21
$GAGSA,A,3,29,,,,,,,,,,,,2.4,1.7,1.7*2E
$GBGSA,A,3,,,,,,,,,,,,,2.4,1.7,1.7*26
$GPGSV,1,1,04,03,82,222,44,04,53,275,45,06,17,322,39,09,16,270,35*71
$GLGSV,1,1,04,65,26,296,40,72,70,005,38,87,15,231,41,88,29,295,41*6D
$GAGSV,1,1,01,29,67,276,42,,,,,,,,,,,,*56
$GNVTG,326.44,T,,M,5.26,N,9.74,K,A*2F
$GNGST,011913.00,0.451,,,,13.712,2.843,19.046*6D
$GNZDA,011913.00,14,07,2025,00,00*74
$GNEBP,,,,,,M*13
$GNRMC,011914.00,A,4915.6153976,N,12315.3308287,W,3.59,253.43,140725,,,D*53
$GNGGA,011914.00,4915.6153976,N,12315.3308287,W,5,10,3.5,88.791,M,-19.036,M,1.0,0000*5E
$GPGSA,A,3,01,03,04,06,09,,,,,,,,4.3,3.5,2.5*3D
$GLGSA,A,3,65,72,87,,,,,,,,,,4.3,3.5,2.5*21
$GAGSA,A,3,29,,,,,,,,,,,,4.3,3.5,2.5*2E
$GBGSA,A,3,,,,,,,,,,,,,4.3,3.5,2.5*26
$GPGSV,2,1,05,01,27,210,36,03,82,222,46,04,53,275,42,06,17,322,46*71
$GPGSV,2,2,05,09,16,270,38,,,,,,,,,,,,*4C
$GLGSV,1,1,03,65,26,296,39,72,70,005,40,87,15,231,39,,,,*54
$GAGSV,1,1,01,29,67,276,46,,,,,,,,,,,,*52
$GNVTG,253.43,T,,M,3.59,N,6.66,K,D*2C
$GNGST,011914.00,2.262,,,,2.147,0.526,3.003*6E
$GNZDA,011914.00,14,07,2025,00,00*73
$GNEBP,4915.6092831,N,12315.3241372,W,80.218,M*2F
$GNRMC,011915.00,A,4915.6163094,N,12315.3317307,W,1.98,250.68,140725,,,D*56
$GNGGA,011915.00,4915.6163094,N,12315.3317307,W,5,09,8.2,91.824,M,-19.036,M,1.0,0000*53
$GPGSA,A,3,03,04,06,09,,,,,,,,,12.7,8.2,9.7*0A
$GLGSA,A,3,65,72,88,,,,,,,,,,12.7,8.2,9.7*18
$GAGSA,A,3,29,,,,,,,,,,,,12.7,8.2,9.7*18
$GBGSA,A,3,,,,,,,,,,,,,12.7,8.2,9.7*10
$GPGSV,1,1,04,03,82,222,46,04,53,275,45,06,17,322,44,09,16,270,39*75
$GLGSV,1,1,03,65,26,296,42,72,70,005,40,88,29,295,45,,,,*5D
$GAGSV,1,1,01,29,67,276,45,,,,,,,,,,,,*51
$GNVTG,250.68,T,,M,1.98,N,3.67,K,D*2D
$GNGST,011915.00,3.750,,,,4.395,0.936,6.089*6B
$GNZDA,011915.00,14,07,2025,00,00*72
$GNEBP,4915.6092831,N,12315.3241372,W,80.218,M*2F
$GNRMC,011916.00,A,4915.6175978,N,12315.3327448,W,4.86,219.07,140725,,,A*5D
$GNGGA,011916.00,4915.6175978,N,12315.3327448,W,1,10,1.3,96.063,M,-19.036,M,1.0,*5B
$GPGSA,A,3,01,03,04,06,31,,,,,,,,2.1,1.3,1.6*36
$GLGSA,A,3,65,72,87,88,,,,,,,,,2.1,1.3,1.6*21
$GAGSA,A,3,29,,,,,,,,,,,,2.1,1.3,1.6*2E
$GBGSA,A,3,,,,,,,,,,,,,2.1,1.3,1.6*26
$GPGSV,2,1,05,01,27,210,35,03,82,222,48,04,53,275,41,06,17,322,39*77
$GPGSV,2,2,05,31,57,069,38,,,,,,,,,,,,*48
$GLGSV,1,1,04,65,26,296,42,72,70,005,41,87,15,231,36,88,29,295,48*68
$GAGSV,1,1,01,29,67,276,43,,,,,,,,,,,,*57
$GNVTG,219.07,T,,M,4.86,N,9.00,K,A*2D
$GNGST,011916.00,0.584,,,,9.142,1.881,12.672*5E
$GNZDA,011916.00,14,07,2025,00,00*71
$GNEBP,,,,,,M*13
$GNRMC,011917.00,A,4915.6147706,N,12315.3324780,W,1.89,234.43,140725,,,A*5B
$GNGGA,011917.00,4915.6147706,N,12315.3324780,W,1,11,1.2,89.440,M,-19.036,M,1.0,*53
$GPGSA,A,3,03,04,06,31,,,,,,,,,2.0,1.2,1.5*34
$GLGSA,A,3,65,72,87,88,,,,,,,,,2.0,1.2,1.5*22
$GAGSA,A,3,29,,,,,,,,,,,,2.0,1.2,1.5*2D
$GBGSA,A,3,,,,,,,,,,,,,2.0,1.2,1.5*25
$GPGSV,1,1,04,03,82,222,46,04,53,275,45,06,17,322,39,31,57,069,43*76
$GLGSV,1,1,04,65,26,296,47,72,70,005,43,87,15,231,36,88,29,295,44*63
$GAGSV,1,1,01,29,67,276,43,,,,,,,,,,,,*57
$GNVTG,234.43,T,,M,1.89,N,3.50,K,A*27
$GNGST,011917.00,0.271,,,,3.951,0.855,5.507*6D
$GNZDA,011917.00,14,07,2025,00,00*70
$GNEBP,,,,,,M*13
$GNRMC,011918.00,A,4915.6142278,N,12315.3330165,W,2.06,249.69,140725,,,A*53
$GNGGA,011918.00,4915.6142278,N,12315.3330165,W,1,11,1.2,88.725,M,-19.036,M,1.0,*5C
$GPGSA,A,3,03,04,06,31,,,,,,,,,2.0,1.2,1.5*34
$GLGSA,A,3,65,72,87,88,,,,,,,,,2.0,1.2,1.5*22
$GAGSA,A,3,07,29,,,,,,,,,,,2.0,1.2,1.5*2A
$GBGSA,A,3,,,,,,,,,,,,,2.0,1.2,1.5*25
$GPGSV,1,1,04,03,82,222,47,04,53,275,45,06,17,322,41,31,57,069,47*7C
$GLGSV,1,1,04,65,26,296,42,72,70,005,41,87,15,231,38,88,29,295,44*6A
$GAGSV,1,1,02,07,52,070,36,29,67,276,44,,,,,,,,*61
$GNVTG,249.69,T,,M,2.06,N,3.81,K,A*2D
$GNGST,011918.00,0.380,,,,8.320,1.718,11.570*58
$GNZDA,011918.00,14,07,2025,00,00*7F
$GNEBP,,,,,,M*13
$GNRMC,011919.00,A,4915.6146558,N,12315.3339588,W,2.20,250.04,140725,,,D*5F
$GNGGA,011919.00,4915.6146558,N,12315.3339588,W,5,12,3.5,90.356,M,-19.036,M,1.0,0000*59
$GPGSA,A,3,01,03,04,06,09,31,,,,,,,4.3,3.5,2.5*3F
$GLGSA,A,3,65,72,88,,,,,,,,,,4.3,3.5,2.5*2E
$GAGSA,A,3,07,29,,,,,,,,,,,4.3,3.5,2.5*29
$GBGSA,A,3,,,,,,,,,,,,,4.3,3.5,2.5*26
$GPGSV,2,1,06,01,27,210,41,03,82,222,46,04,53,275,45,06,17,322,40*73
$GPGSV,2,2,06,09,16,270,38,31,57,069,47,,,,,,,,*73
$GLGSV,1,1,03,65,26,296,44,72,70,005,41,88,29,295,46,,,,*59
$GAGSV,1,1,02,07,52,070,43,29,67,276,45,,,,,,,,*62
$GNVTG,250.04,T,,M,2.20,N,4.08,K,D*29
$GNGST,011919.00,0.710,,,,2.136,0.512,2.991*63
$GNZDA,011919.00,14,07,2025,00,00*7E
$GNEBP,4915.6092831,N,12315.3241372,W,80.218,M*2F
$GNRMC,011920.00,A,4915.6136561,N,12315.3337468,W,2.68,281.85,140725,,,D*50
$GNGGA,011920.00,4915.6136561,N,12315.3337468,W,5,12,1.6,86.268,M,-19.036,M,1.0,0000*55
$GPGSA,A,3,01,03,04,06,09,31,,,,,,,2.7,1.6,2.2*3B
$GLGSA,A,3,65,72,87,88,,,,,,,,,2.7,1.6,2.2*25
$GAGSA,A,3,07,29,,,,,,,,,,,2.7,1.6,2.2*2D
$GBGSA,A,3,,,,,,,,,,,,,2.7,1.6,2.2*22
$GPGSV,2,1,06,01,27,210,40,03,82,222,46,04,53,275,44,06,17,322,44*77
$GPGSV,2,2,06,09,16,270,38,31,57,069,45,,,,,,,,*71
$GLGSV,1,1,04,65,26,296,40,72,70,005,42,87,15,231,42,88,29,295,39*6C
$GAGSV,1,1,02,07,52,070,45,29,67,276,45,,,,,,,,*64
$GNVTG,281.85,T,,M,2.68,N,4.96,K,D*27
$GNGST,011920.00,5.910,,,,1.614,0.417,2.270*66
$GNZDA,011920.00,14,07,2025,00,00*74
$GNEBP,4915.6092831,N,12315.3241372,W,80.218,M*2F
$GNRMC,011921.00,A,4915.6147862,N,12315.3338664,W,3.32,321.32,140725,,,A*54
$GNGGA,011921.00,4915.6147862,N,12315.3338664,W,1,12,1.1,86.574,M,-19.036,M,1.0,*54
$GPGSA,A,3,03,04,09,26,31,,,,,,,,1.8,1.1,1.3*31
$GLGSA,A,3,65,72,87,88,,,,,,,,,1.8,1.1,1.3*2C
$GAGSA,A,3,07,29,,,,,,,,,,,1.8,1.1,1.3*24
$GBGSA,A,3,,,,,,,,,,,,,1.8,1.1,1.3*2B
$GPGSV,2,1,05,03,82,222,46,04,53,275,44,09,16,270,39,26,31,116,38*7E
$GPGSV,2,2,05,31,57,069,47,,,,,,,,,,,,*40
$GLGSV,1,1,04,65,26,296,38,72,70,005,42,87,15,231,40,88,29,295,43*6C
$GAGSV,1,1,02,07,52,070,45,29,67,276,44,,,,,,,,*65
$GNVTG,321.32,T,,M,3.32,N,6.15,K,A*22
$GNGST,011921.00,2.031,,,,1.140,0.345,1.628*66
$GNZDA,011921.00,14,07,2025,00,00*75
$GNEBP,,,,,,M*13
$GNRMC,011922.00,A,4915.6150602,N,12315.3344155,W,1.57,295.79,140725,,,A*57
$GNGGA,011922.00,4915.6150602,N,12315.3344155,W,1,11,1.1,86.415,M,-19.036,M,1.0,*52
$GPGSA,A,3,03,04,06,09,26,31,,,,,,,1.7,1.1,1.3*38
$GLGSA,A,3,72,74,87,,,,,,,,,,1.7,1.1,1.3*23
$GAGSA,A,3,07,29,,,,,,,,,,,1.7,1.1,1.3*2B
$GBGSA,A,3,,,,,,,,,,,,,1.7,1.1,1.3*24
$GPGSV,2,1,06,03,82,222,45,04,53,275,44,06,17,322,40,09,16,270,37*7C
$GPGSV,2,2,06,26,31,116,37,31,57,069,43,,,,,,,,*73
$GLGSV,1,1,03,72,70,005,41,74,48,126,37,87,15,231,39,,,,*5B
$GAGSV,1,1,02,07,52,070,43,29,67,276,45,,,,,,,,*62
$GNVTG,295.79,T,,M,1.57,N,2.91,K,A*2A
$GNGST,011922.00,0.383,,,,0.902,0.313,1.308*66
$GNZDA,011922.00,14,07,2025,00,00*76
$GNEBP,,,,,,M*13
$GNRMC,011923.00,A,4915.6150864,N,12315.3348455,W,0.27,299.45,140725,,,A*54
$GNGGA,011923.00,4915.6150864,N,12315.3348455,W,1,14,0.9,85.618,M,-19.036,M,1.0,*54
$GPGSA,A,3,03,04,09,26,31,,,,,,,,1.7,0.9,1.4*30
$GLGSA,A,3,65,72,73,74,87,88,,,,,,,1.7,0.9,1.4*2A
$GAGSA,A,3,07,29,,,,,,,,,,,1.7,0.9,1.4*25
$GBGSA,A,3,,,,,,,,,,,,,1.7,0.9,1.4*2A
$GPGSV,2,1,05,03,82,222,46,04,53,275,44,09,16,270,38,26,31,116,39*7E
$GPGSV,2,2,05,31,57,069,46,,,,,,,,,,,,*41
$GLGSV,2,1,06,65,26,297,41,72,70,005,41,73,42,053,35,74,48,126,36*61
$GLGSV,2,2,06,87,15,231,41,88,29,295,45,,,,,,,,*69
$GAGSV,1,1,02,07,52,070,44,29,67,276,42,,,,,,,,*62
$GNVTG,299.45,T,,M,0.27,N,0.50,K,A*20
$GNGST,011923.00,0.191,,,,1.253,0.357,1.776*65
$GNZDA,011923.00,14,07,2025,00,00*77
$GNEBP,,,,,,M*13
$GNRMC,011924.00,A,4915.6159943,N,12315.3354428,W,1.70,319.03,140725,,,D*54
$GNGGA,011924.00,4915.6159943,N,12315.3354428,W,5,12,8.1,87.268,M,-19.036,M,1.0,0000*5A
$GPGSA,A,3,03,04,06,26,31,,,,,,,,12.6,8.1,9.6*06
$GLGSA,A,3,72,73,87,88,,,,,,,,,12.6,8.1,9.6*13
$GAGSA,A,3,07,29,,,,,,,,,,,12.6,8.1,9.6*1C
$GBGSA,A,3,,,,,,,,,,,,,12.6,8.1,9.6*13
$GPGSV,2,1,05,03,82,222,44,04,53,275,45,06,17,322,38,26,31,116,41*7A
$GPGSV,2,2,05,31,57,069,46,,,,,,,,,,,,*41
$GLGSV,1,1,04,72,70,005,41,73,42,053,36,87,15,231,39,88,29,294,40*63
$GAGSV,1,1,02,07,52,070,42,29,67,276,46,,,,,,,,*60
$GNVTG,319.03,T,,M,1.70,N,3.14,K,D*2E
$GNGST,011924.00,2.005,,,,3.223,0.696,4.449*6B
$GNZDA,011924.00,14,07,2025,00,00*70
$GNEBP,4915.6092831,N,12315.3241372,W,80.218,M*2F
$GNRMC,011925.00,A,4915.6158498,N,12315.3352787,W,0.81,336.06,140725,,,D*58
$GNGGA,011925.00,4915.6158498,N,12315.3352787,W,5,13,3.3,86.658,M,-19.036,M,1.0,0000*5F
$GPGSA,A,3,01,03,04,06,26,31,,,,,,,4.1,3.3,2.5*36
$GLGSA,A,3,72,73,87,88,,,,,,,,,4.1,3.3,2.5*22
$GAGSA,A,3,07,29,,,,,,,,,,,4.1,3.3,2.5*2D
$GBGSA,A,3,,,,,,,,,,,,,4.1,3.3,2.5*22
$GPGSV,2,1,06,01,27,210,39,03,82,222,43,04,53,275,44,06,17,322,40*78
$GPGSV,2,2,06,26,31,116,35,31,57,069,44,,,,,,,,*76
$GLGSV,1,1,04,72,70,005,41,73,42,053,38,87,15,231,41,88,29,294,41*63
$GAGSV,1,1,02,07,52,070,42,29,67,276,44,,,,,,,,*62
$GNVTG,336.06,T,,M,0.81,N,1.51,K,D*2A
$GNGST,011925.00,2.690,,,,0.876,0.305,1.255*68
$GNZDA,011925.00,14,07,2025,00,00*71
$GNEBP,4915.6092831,N,12315.3241372,W,80.218,M*2F
$GNRMC,011926.00,A,4915.6156513,N,12315.3355078,W,2.55,275.66,140725,,,D*5C
$GNGGA,011926.00,4915.6156513,N,12315.3355078,W,5,15,3.3,86.114,M,-19.036,M,1.0,0000*59
$GPGSA,A,3,01,03,04,06,26,31,,,,,,,4.1,3.3,2.5*36
$GLGSA,A,3,65,72,73,87,88,,,,,,,,4.1,3.3,2.5*21
$GAGSA,A,3,07,29,,,,,,,,,,,4.1,3.3,2.5*2D
$GBGSA,A,3,,,,,,,,,,,,,4.1,3.3,2.5*22
$GPGSV,2,1,06,01,27,210,39,03,82,222,45,04,53,275,45,06,17,322,40*7F
$GPGSV,2,2,06,26,31,116,36,31,57,069,45,,,,,,,,*74
$GLGSV,2,1,05,65,26,297,37,72,70,005,40,73,42,053,36,87,15,231,39*6F
$GLGSV,2,2,05,88,29,294,46,,,,,,,,,,,,*56
$GAGSV,1,1,02,07,52,070,43,29,67,276,45,,,,,,,,*62
$GNVTG,275.66,T,,M,2.55,N,4.73,K,D*24
$GNGST,011926.00,2.146,,,,0.700,0.285,1.019*6A
$GNZDA,011926.00,14,07,2025,00,00*72
$GNEBP,4915.6092831,N,12315.3241372,W,80.218,M*2F
$GNRMC,011927.00,A,4915.6154076,N,12315.3357024,W,0.48,275.03,140725,,,D*5F
$GNGGA,011927.00,4915.6154076,N,12315.3357024,W,5,14,3.3,85.738,M,-19.036,M,1.0,0000*5D
$GPGSA,A,3,01,03,04,06,26,31,,,,,,,4.1,3.3,2.5*36
$GLGSA,A,3,65,72,74,88,,,,,,,,,4.1,3.3,2.5*29
$GAGSA,A,3,07,26,29,,,,,,,,,,4.1,3.3,2.5*29
$GBGSA,A,3,,,,,,,,,,,,,4.1,3.3,2.5*22
$GPGSV,2,1,06,01,27,210,37,03,82,222,46,04,53,275,44,06,17,322,36*72
$GPGSV,2,2,06,26,31,116,40,31,57,069,46,,,,,,,,*76
$GLGSV,1,1,04,65,26,297,41,72,70,005,41,74,48,126,35,88,29,294,41*60
$GAGSV,1,1,03,07,52,070,45,26,23,198,36,29,67,276,44,,,,*54
$GNVTG,275.03,T,,M,0.48,N,0.90,K,D*20
$GNGST,011927.00,2.448,,,,0.618,0.275,0.911*67
$GNZDA,011927.00,14,07,2025,00,00*73
$GNEBP,4915.6092831,N,12315.3241372,W,80.218,M*2F
$GNRMC,011928.00,A,4915.6153152,N,12315.3358371,W,0.34,275.03,140725,,,D*57
$GNGGA,011928.00,4915.6153152,N,12315.3358371,W,5,15,3.3,85.833,M,-19.036,M,1.0,0000*5B
$GPGSA,A,3,01,03,04,06,26,31,,,,,,,4.1,3.3,2.5*36
$GLGSA,A,3,65,72,73,74,88,,,,,,,,4.1,3.3,2.5*2D
$GAGSA,A,3,07,26,29,,,,,,,,,,4.1,3.3,2.5*29
$GBGSA,A,3,,,,,,,,,,,,,4.1,3.3,2.5*22
$GPGSV,2,1,06,01,27,210,38,03,82,221,45,04,53,275,43,06,17,322,40*7B
$GPGSV,2,2,06,26,31,116,39,31,57,069,45,,,,,,,,*7B
$GLGSV,2,1,05,65,26,297,35,72,70,005,41,73,42,053,36,74,48,126,35*61
$GLGSV,2,2,05,88,29,294,48,,,,,,,,,,,,*58
$GAGSV,1,1,03,07,52,070,44,26,23,198,36,29,67,276,45,,,,*54
$GNVTG,275.03,T,,M,0.34,N,0.62,K,D*26
$GNGST,011928.00,2.548,,,,0.561,0.267,0.835*60
$GNZDA,011928.00,14,07,2025,00,00*7C
$GNEBP,4915.6092831,N,12315.3241372,W,80.218,M*2F
$GNRMC,011929.00,A,4915.6153117,N,12315.3359338,W,0.10,275.03,140725,,,D*5D
$GNGGA,011929.00,4915.6153117,N,12315.3359338,W,5,15,3.3,86.065,M,-19.036,M,1.0,0000*5F
$GPGSA,A,3,01,03,04,06,26,31,,,,,,,4.1,3.3,2.5*36
$GLGSA,A,3,65,72,73,74,88,,,,,,,,4.1,3.3,2.5*2D
$GAGSA,A,3,07,26,29,,,,,,,,,,4.1,3.3,2.5*29
$GBGSA,A,3,,,,,,,,,,,,,4.1,3.3,2.5*22
$GPGSV,2,1,06,01,27,210,38,03,82,221,45,04,53,275,43,06,17,322,41*7A
$GPGSV,2,2,06,26,31,116,40,31,57,069,46,,,,,,,,*76
$GLGSV,2,1,05,65,26,297,35,72,70,005,41,73,42,053,36,74,48,126,35*61
$GLGSV,2,2,05,88,29,294,48,,,,,,,,,,,,*58
$GAGSV,1,1,03,07,52,070,44,26,23,198,36,29,67,276,45,,,,*54
$GNVTG,275.03,T,,M,0.10,N,0.19,K,D*2C
$GNGST,011929.00,1.599,,,,0.510,0.261,0.768*69
$GNZDA,011929.00,14,07,2025,00,00*7D
$GNEBP,4915.6092831,N,12315.3241372,W,80.218,M*2F
$GNRMC,011930.00,A,4915.6152437,N,12315.3359813,W,0.12,275.03,140725,,,D*53
$GNGGA,011930.00,4915.6152437,N,12315.3359813,W,5,15,3.5,86.064,M,-19.036,M,1.0,0000*54
$GPGSA,A,3,01,03,04,06,26,31,,,,,,,4.3,3.5,2.5*32
$GLGSA,A,3,65,72,73,74,88,,,,,,,,4.3,3.5,2.5*29
$GAGSA,A,3,07,26,29,,,,,,,,,,4.3,3.5,2.5*2D
$GBGSA,A,3,,,,,,,,,,,,,4.3,3.5,2.5*26
$GPGSV,2,1,06,01,27,210,38,03,82,221,45,04,53,275,43,06,17,322,41*7A
$GPGSV,2,2,06,26,31,116,39,31,57,069,46,,,,,,,,*78
$GLGSV,2,1,05,65,26,297,35,72,70,005,41,73,42,053,36,74,48,126,35*61
$GLGSV,2,2,05,88,29,294,48,,,,,,,,,,,,*58
$GAGSV,1,1,03,07,52,070,45,26,23,198,36,29,67,276,45,,,,*55
$GNVTG,275.03,T,,M,0.12,N,0.23,K,D*27
$GNGST,011930.00,2.066,,,,0.471,0.257,0.718*63
$GNZDA,011930.00,14,07,2025,00,00*75
$GNEBP,4915.6092831,N,12315.3241372,W,80.218,M*2F
$GNRMC,011931.00,A,4915.6152039,N,12315.3360325,W,0.08,275.03,140725,,,D*57
$GNGGA,011931.00,4915.6152039,N,12315.3360325,W,5,15,3.3,86.145,M,-19.036,M,1.0,0000*5F
$GPGSA,A,3,01,03,04,06,26,31,,,,,,,4.1,3.3,2.5*36
$GLGSA,A,3,65,72,73,74,88,,,,,,,,4.1,3.3,2.5*2D
$GAGSA,A,3,07,26,29,,,,,,,,,,4.1,3.3,2.5*29
$GBGSA,A,3,,,,,,,,,,,,,4.1,3.3,2.5*22
$GPGSV,2,1,06,01,27,210,38,03,82,221,45,04,53,275,43,06,17,322,41*7A
$GPGSV,2,2,06,26,31,116,40,31,57,069,46,,,,,,,,*76
$GLGSV,2,1,05,65,26,297,35,72,70,006,41,73,42,053,36,74,48,126,35*62
$GLGSV,2,2,05,88,29,294,48,,,,,,,,,,,,*58
$GAGSV,1,1,03,07,52,070,45,26,23,198,36,29,67,276,45,,,,*55
$GNVTG,275.03,T,,M,0.08,N,0.14,K,D*28
$GNGST,011931.00,1.629,,,,0.441,0.253,0.680*6B
$GNZDA,011931.00,14,07,2025,00,00*74
$GNEBP,4915.6092831,N,12315.3241372,W,80.218,M*2F
$GNRMC,011932.00,A,4915.6151597,N,12315.3360864,W,0.12,275.03,140725,,,A*56
$GNGGA,011932.00,4915.6151597,N,12315.3360864,W,1,16,0.7,86.200,M,-19.036,M,1.0,*52
$GPGSA,A,3,01,03,04,06,26,31,,,,,,,1.4,0.7,1.2*35
$GLGSA,A,3,65,72,73,74,88,,,,,,,,1.4,0.7,1.2*2E
$GAGSA,A,3,07,26,29,,,,,,,,,,1.4,0.7,1.2*2A
$GBGSA,A,3,,,,,,,,,,,,,1.4,0.7,1.2*21
$GPGSV,2,1,06,01,27,210,38,03,82,221,45,04,53,275,43,06,17,322,41*7A
$GPGSV,2,2,06,26,31,116,40,31,57,069,46,,,,,,,,*76
$GLGSV,2,1,05,65,26,297,35,72,70,006,41,73,42,053,36,74,48,126,35*62
$GLGSV,2,2,05,88,29,294,48,,,,,,,,,,,,*58
$GAGSV,1,1,03,07,52,070,45,26,23,198,37,29,67,276,45,,,,*54
$GNVTG,275.03,T,,M,0.12,N,0.22,K,A*23
$GNGST,011932.00,0.473,,,,0.472,0.254,0.717*6C
$GNZDA,011932.00,14,07,2025,00,00*77
$GNEBP,,,,,,M*13
$GNRMC,011933.00,A,4915.6151083,N,12315.3361265,W,0.21,275.03,140725,,,A*5D
$GNGGA,011933.00,4915.6151083,N,12315.3361265,W,1,16,0.7,86.196,M,-19.036,M,1.0,*55
$GPGSA,A,3,01,03,04,06,26,31,,,,,,,1.4,0.7,1.2*35
$GLGSA,A,3,65,72,73,74,88,,,,,,,,1.4,0.7,1.2*2E
$GAGSA,A,3,07,26,29,,,,,,,,,,1.4,0.7,1.2*2A
$GBGSA,A,3,,,,,,,,,,,,,1.4,0.7,1.2*21
$GPGSV,2,1,06,01,27,210,37,03,82,221,45,04,53,275,43,06,17,322,41*75
$GPGSV,2,2,06,26,31,116,40,31,57,069,46,,,,,,,,*76
$GLGSV,2,1,05,65,26,297,35,72,70,006,41,73,42,053,36,74,48,126,35*62
$GLGSV,2,2,05,88,29,294,48,,,,,,,,,,,,*58
$GAGSV,1,1,03,07,52,070,44,26,23,198,36,29,67,276,45,,,,*54
$GNVTG,275.03,T,,M,0.21,N,0.38,K,A*28
$GNGST,011933.00,0.370,,,,1.437,0.365,2.013*6B
$GNZDA,011933.00,14,07,2025,00,00*76
$GNEBP,,,,,,M*13
$GNRMC,011934.00,A,4915.6150810,N,12315.3361337,W,0.14,275.03,140725,,,D*5C
$GNGGA,011934.00,4915.6150810,N,12315.3361337,W,5,15,3.5,86.180,M,-19.036,M,1.0,0000*56
$GPGSA,A,3,01,03,04,06,26,31,,,,,,,4.3,3.5,2.5*32
$GLGSA,A,3,65,72,73,74,88,,,,,,,,4.3,3.5,2.5*29
$GAGSA,A,3,07,26,29,,,,,,,,,,4.3,3.5,2.5*2D
$GBGSA,A,3,,,,,,,,,,,,,4.3,3.5,2.5*26
$GPGSV,2,1,06,01,27,210,38,03,82,221,45,04,53,275,43,06,17,322,40*7B
$GPGSV,2,2,06,26,31,116,40,31,57,069,46,,,,,,,,*76
$GLGSV,2,1,05,65,26,297,35,72,70,006,41,73,42,053,35,74,48,126,35*61
$GLGSV,2,2,05,88,29,294,48,,,,,,,,,,,,*58
$GAGSV,1,1,03,07,52,070,45,26,23,198,36,29,67,276,45,,,,*55
$GNVTG,275.03,T,,M,0.14,N,0.26,K,D*24
$GNGST,011934.00,1.650,,,,0.411,0.247,0.639*62
$GNZDA,011934.00,14,07,2025,00,00*71
$GNEBP,4915.6092831,N,12315.3241372,W,80.218,M*2F
$GNRMC,011935.00,A,4915.6150025,N,12315.3361341,W,0.05,275.03,140725,,,D*52
$GNGGA,011935.00,4915.6150025,N,12315.3361341,W,5,16,2.7,86.040,M,-19.036,M,1.0,0000*55
$GPGSA,A,3,01,03,04,06,26,31,,,,,,,3.6,2.7,2.4*32
$GLGSA,A,3,65,72,73,74,88,,,,,,,,3.6,2.7,2.4*29
$GAGSA,A,3,07,26,29,,,,,,,,,,3.6,2.7,2.4*2D
$GBGSA,A,3,,,,,,,,,,,,,3.6,2.7,2.4*26
$GPGSV,2,1,06,01,27,210,37,03,82,221,45,04,53,275,43,06,17,322,40*74
$GPGSV,2,2,06,26,31,116,40,31,57,069,46,,,,,,,,*76
$GLGSV,2,1,05,65,26,297,35,72,70,006,41,73,42,053,35,74,48,126,36*62
$GLGSV,2,2,05,88,29,294,48,,,,,,,,,,,,*58
$GAGSV,1,1,03,07,52,070,45,26,23,198,36,29,67,276,45,,,,*55
$GNVTG,275.03,T,,M,0.05,N,0.08,K,D*28
$GNGST,011935.00,4.499,,,,0.391,0.244,0.613*65
$GNZDA,011935.00,14,07,2025,00,00*70
$GNEBP,4915.6092831,N,12315.3241372,W,80.218,M*2F
$GNRMC,011936.00,A,4915.6149314,N,12315.3361717,W,0.10,275.03,140725,,,D*5B
$GNGGA,011936.00,4915.6149314,N,12315.3361717,W,5,15,2.7,85.928,M,-19.036,M,1.0,0000*5F
$GPGSA,A,3,01,03,04,06,26,31,,,,,,,3.6,2.7,2.4*32
$GLGSA,A,3,65,72,73,74,88,,,,,,,,3.6,2.7,2.4*29
$GAGSA,A,3,07,26,29,,,,,,,,,,3.6,2.7,2.4*2D
$GBGSA,A,3,,,,,,,,,,,,,3.6,2.7,2.4*26
$GPGSV,2,1,06,01,27,210,37,03,82,221,45,04,53,275,43,06,17,322,40*74
$GPGSV,2,2,06,26,31,116,40,31,57,069,45,,,,,,,,*75
$GLGSV,2,1,05,65,26,297,35,72,70,006,41,73,42,053,35,74,48,126,36*62
$GLGSV,2,2,05,88,29,294,48,,,,,,,,,,,,*58
$GAGSV,1,1,03,07,52,070,45,26,23,198,36,29,67,276,45,,,,*55
$GNVTG,275.03,T,,M,0.10,N,0.19,K,D*2C
$GNGST,011936.00,4.541,,,,0.374,0.242,0.592*65
$GNZDA,011936.00,14,07,2025,00,00*73
$GNEBP,4915.6092831,N,12315.3241372,W,80.218,M*2F
$GNRMC,011937.00,A,4915.6148745,N,12315.3361680,W,0.06,275.03,140725,,,D*53
$GNGGA,011937.00,4915.6148745,N,12315.3361680,W,5,15,3.3,85.831,M,-19.036,M,1.0,0000*5C
$GPGSA,A,3,01,03,04,06,26,31,,,,,,,4.1,3.3,2.5*36
$GLGSA,A,3,65,72,73,74,88,,,,,,,,4.1,3.3,2.5*2D
$GAGSA,A,3,07,26,29,,,,,,,,,,4.1,3.3,2.5*29
$GBGSA,A,3,,,,,,,,,,,,,4.1,3.3,2.5*22
$GPGSV,2,1,06,01,27,210,37,03,82,221,45,04,53,275,43,06,17,322,40*74
$GPGSV,2,2,06,26,31,116,40,31,57,069,45,,,,,,,,*75
$GLGSV,2,1,05,65,26,297,35,72,70,006,41,73,42,053,35,74,48,126,36*62
$GLGSV,2,2,05,88,29,294,48,,,,,,,,,,,,*58
$GAGSV,1,1,03,07,52,070,45,26,23,198,36,29,67,276,45,,,,*55
$GNVTG,275.03,T,,M,0.06,N,0.11,K,D*23
$GNGST,011937.00,1.472,,,,0.360,0.240,0.573*68
$GNZDA,011937.00,14,07,2025,00,00*72
$GNEBP,4915.6092831,N,12315.3241372,W,80.218,M*2F
$GNRMC,011938.00,A,4915.6148279,N,12315.3362040,W,0.14,275.03,140725,,,D*5C
$GNGGA,011938.00,4915.6148279,N,12315.3362040,W,5,15,3.5,85.805,M,-19.036,M,1.0,0000*51
$GPGSA,A,3,01,03,04,06,26,31,,,,,,,4.3,3.5,2.5*32
$GLGSA,A,3,65,72,73,74,88,,,,,,,,4.3,3.5,2.5*29
$GAGSA,A,3,07,26,29,,,,,,,,,,4.3,3.5,2.5*2D
$GBGSA,A,3,,,,,,,,,,,,,4.3,3.5,2.5*26
$GPGSV,2,1,06,01,27,210,37,03,82,221,45,04,53,275,43,06,17,322,40*74
$GPGSV,2,2,06,26,31,116,40,31,57,069,45,,,,,,,,*75
$GLGSV,2,1,05,65,26,297,36,72,70,006,41,73,42,053,35,74,48,126,36*61
$GLGSV,2,2,05,88,29,294,47,,,,,,,,,,,,*57
$GAGSV,1,1,03,07,52,070,45,26,23,198,36,29,67,276,45,,,,*55
$GNVTG,275.03,T,,M,0.14,N,0.27,K,D*25
$GNGST,011938.00,1.456,,,,0.347,0.238,0.556*6C
$GNZDA,011938.00,14,07,2025,00,00*7D
$GNEBP,4915.6092831,N,12315.3241372,W,80.218,M*2F
$GNRMC,011939.00,A,4915.6148003,N,12315.3361817,W,0.13,275.03,140725,,,D*5C
$GNGGA,011939.00,4915.6148003,N,12315.3361817,W,5,15,3.5,85.719,M,-19.036,M,1.0,0000*54
$GPGSA,A,3,01,03,04,06,26,31,,,,,,,4.3,3.5,2.5*32
$GLGSA,A,3,65,72,73,74,88,,,,,,,,4.3,3.5,2.5*29
$GAGSA,A,3,07,26,29,,,,,,,,,,4.3,3.5,2.5*2D
$GBGSA,A,3,,,,,,,,,,,,,4.3,3.5,2.5*26
$GPGSV,2,1,06,01,27,210,37,03,82,221,45,04,53,275,43,06,17,322,40*74
$GPGSV,2,2,06,26,31,116,40,31,57,069,45,,,,,,,,*75
$GLGSV,2,1,05,65,26,297,36,72,70,006,41,73,42,053,35,74,48,126,36*61
$GLGSV,2,2,05,88,29,294,47,,,,,,,,,,,,*57
$GAGSV,1,1,03,07,52,070,45,26,23,198,36,29,67,276,45,,,,*55
$GNVTG,275.03,T,,M,0.13,N,0.24,K,D*21
$GNGST,011939.00,1.156,,,,0.335,0.236,0.542*66
$GNZDA,011939.00,14,07,2025,00,00*7C
$GNEBP,4915.6092831,N,12315.3241372,W,80.218,M*2F
$GNRMC,011940.00,A,4915.6147738,N,12315.3362270,W,0.05,275.03,140725,,,D*5D
$GNGGA,011940.00,4915.6147738,N,12315.3362270,W,5,15,8.0,85.741,M,-19.036,M,1.0,0000*51
$GPGSA,A,3,01,03,04,06,26,31,,,,,,,12.4,8.0,9.5*07
$GLGSA,A,3,65,72,73,74,88,,,,,,,,12.4,8.0,9.5*1C
$GAGSA,A,3,07,26,29,,,,,,,,,,12.4,8.0,9.5*18
$GBGSA,A,3,,,,,,,,,,,,,12.4,8.0,9.5*13
$GPGSV,2,1,06,01,27,210,37,03,82,221,45,04,53,275,44,06,17,322,40*73
$GPGSV,2,2,06,26,31,116,40,31,57,069,45,,,,,,,,*75
$GLGSV,2,1,05,65,26,297,37,72,70,006,41,73,42,053,35,74,48,126,36*60
$GLGSV,2,2,05,88,29,294,47,,,,,,,,,,,,*57
$GAGSV,1,1,03,07,52,070,45,26,23,198,36,29,67,276,45,,,,*55
$GNVTG,275.03,T,,M,0.05,N,0.10,K,D*21
$GNGST,011940.00,1.138,,,,0.356,0.236,0.561*64
$GNZDA,011940.00,14,07,2025,00,00*72
$GNEBP,4915.6092831,N,12315.3241372,W,80.218,M*2F
$GNRMC,011941.00,A,4915.6147877,N,12315.3362454,W,0.12,275.03,140725,,,A*5B
$GNGGA,011941.00,4915.6147877,N,12315.3362454,W,1,15,0.8,85.794,M,-19.036,M,1.0,*58
$GPGSA,A,3,01,03,04,06,26,31,,,,,,,1.5,0.8,1.2*3B
$GLGSA,A,3,65,72,73,74,88,,,,,,,,1.5,0.8,1.2*20
$GAGSA,A,3,07,26,29,,,,,,,,,,1.5,0.8,1.2*24
$GBGSA,A,3,,,,,,,,,,,,,1.5,0.8,1.2*2F
$GPGSV,2,1,06,01,27,210,36,03,82,221,45,04,53,275,44,06,17,322,40*72
$GPGSV,2,2,06,26,31,116,40,31,57,069,45,,,,,,,,*75
$GLGSV,2,1,05,65,26,297,38,72,70,006,41,73,42,053,35,74,48,126,36*6F
$GLGSV,2,2,05,88,29,294,47,,,,,,,,,,,,*57
$GAGSV,1,1,03,07,52,070,45,26,23,198,36,29,67,276,45,,,,*55
$GNVTG,275.03,T,,M,0.12,N,0.22,K,A*23
$GNGST,011941.00,0.299,,,,0.418,0.238,0.638*60
$GNZDA,011941.00,14,07,2025,00,00*73
$GNEBP,,,,,,M*13
$GNRMC,011942.00,A,4915.6148171,N,12315.3362723,W,0.20,275.03,140725,,,A*5A
$GNGGA,011942.00,4915.6148171,N,12315.3362723,W,1,14,0.9,85.879,M,-19.036,M,1.0,*54
$GPGSA,A,3,01,03,04,06,26,31,,,,,,,1.5,0.9,1.3*3B
$GLGSA,A,3,65,72,74,88,,,,,,,,,1.5,0.9,1.3*24
$GAGSA,A,3,07,26,29,,,,,,,,,,1.5,0.9,1.3*24
$GBGSA,A,3,,,,,,,,,,,,,1.5,0.9,1.3*2F
$GPGSV,2,1,06,01,27,210,36,03,82,221,45,04,53,275,44,06,17,322,40*72
$GPGSV,2,2,06,26,31,116,40,31,57,069,46,,,,,,,,*76
$GLGSV,1,1,04,65,26,297,38,72,70,006,41,74,48,126,36,88,29,294,46*69
$GAGSV,1,1,03,07,52,070,45,26,23,198,36,29,67,276,45,,,,*55
$GNVTG,275.03,T,,M,0.20,N,0.37,K,A*26
$GNGST,011942.00,0.274,,,,1.570,0.370,2.190*64
$GNZDA,011942.00,14,07,2025,00,00*70
$GNEBP,,,,,,M*13
$GNRMC,011943.00,A,4915.6147905,N,12315.3362708,W,0.08,275.03,140725,,,D*59
$GNGGA,011943.00,4915.6147905,N,12315.3362708,W,5,14,3.3,85.812,M,-19.036,M,1.0,0000*58
$GPGSA,A,3,01,03,04,06,26,31,,,,,,,4.1,3.3,2.5*36
$GLGSA,A,3,65,72,74,88,,,,,,,,,4.1,3.3,2.5*29
$GAGSA,A,3,07,26,29,,,,,,,,,,4.1,3.3,2.5*29
$GBGSA,A,3,,,,,,,,,,,,,4.1,3.3,2.5*22
$GPGSV,2,1,06,01,27,210,36,03,82,221,45,04,53,275,44,06,17,322,39*7C
$GPGSV,2,2,06,26,31,116,41,31,57,069,45,,,,,,,,*74
$GLGSV,1,1,04,65,26,297,39,72,70,006,41,74,48,126,36,88,29,294,46*68
$GAGSV,1,1,03,07,52,070,45,26,23,198,36,29,67,276,44,,,,*54
$GNVTG,275.03,T,,M,0.08,N,0.14,K,D*28
$GNGST,011943.00,1.101,,,,0.340,0.231,0.538*61
$GNZDA,011943.00,14,07,2025,00,00*71
$GNEBP,4915.6092831,N,12315.3241372,W,80.218,M*2F
$GNRMC,011944.00,A,4915.6147679,N,12315.3362850,W,0.11,275.03,140725,,,D*50
$GNGGA,011944.00,4915.6147679,N,12315.3362850,W,5,15,3.3,85.781,M,-19.036,M,1.0,0000*5D
$GPGSA,A,3,01,03,04,06,26,31,,,,,,,4.1,3.3,2.5*36
$GLGSA,A,3,65,72,73,74,88,,,,,,,,4.1,3.3,2.5*2D
$GAGSA,A,3,07,26,29,,,,,,,,,,4.1,3.3,2.5*29
$GBGSA,A,3,,,,,,,,,,,,,4.1,3.3,2.5*22
$GPGSV,2,1,06,01,27,210,36,03,82,221,45,04,53,275,44,06,17,322,39*7C
$GPGSV,2,2,06,26,31,116,41,31,57,069,46,,,,,,,,*77
$GLGSV,2,1,05,65,26,297,39,72,70,006,41,73,42,053,35,74,48,126,36*6E
$GLGSV,2,2,05,88,29,294,46,,,,,,,,,,,,*56
$GAGSV,1,1,03,07,52,070,45,26,23,198,36,29,67,276,45,,,,*55
$GNVTG,275.03,T,,M,0.11,N,0.21,K,D*26
$GNGST,011944.00,1.263,,,,0.327,0.234,0.524*68
$GNZDA,011944.00,14,07,2025,00,00*76
$GNEBP,4915.6092831,N,12315.3241372,W,80.218,M*2F
$GNRMC,011945.00,A,4915.6147477,N,12315.3362929,W,0.07,275.03,140725,,,D*55
$GNGGA,011945.00,4915.6147477,N,12315.3362929,W,5,15,3.3,85.721,M,-19.036,M,1.0,0000*55
$GPGSA,A,3,01,03,04,06,26,31,,,,,,,4.1,3.3,2.5*36
$GLGSA,A,3,65,72,74,88,,,,,,,,,4.1,3.3,2.5*29
$GAGSA,A,3,07,26,29,,,,,,,,,,4.1,3.3,2.5*29
$GBGSA,A,3,,,,,,,,,,,,,4.1,3.3,2.5*22
$GPGSV,2,1,06,01,27,210,36,03,82,220,45,04,53,275,44,06,17,322,40*73
$GPGSV,2,2,06,26,31,116,41,31,57,069,46,,,,,,,,*77
$GLGSV,1,1,04,65,26,297,40,72,70,006,41,74,48,126,36,88,29,294,45*65
$GAGSV,1,1,03,07,52,070,45,26,23,198,36,29,67,276,45,,,,*55
$GNVTG,275.03,T,,M,0.07,N,0.13,K,D*20
$GNGST,011945.00,1.333,,,,0.318,0.233,0.511*60
$GNZDA,011945.00,14,07,2025,00,00*77
$GNEBP,4915.6092831,N,12315.3241372,W,80.218,M*2F
$GNRMC,011946.00,A,4915.6147360,N,12315.3363129,W,0.02,275.03,140725,,,D*5B
$GNGGA,011946.00,4915.6147360,N,12315.3363129,W,5,16,8.0,85.721,M,-19.036,M,1.0,0000*55
$GPGSA,A,3,01,03,04,06,26,31,,,,,,,12.3,8.0,9.4*01
$GLGSA,A,3,65,72,73,74,88,,,,,,,,12.3,8.0,9.4*1A
$GAGSA,A,3,07,26,29,,,,,,,,,,12.3,8.0,9.4*1E
$GBGSA,A,3,,,,,,,,,,,,,12.3,8.0,9.4*15
$GPGSV,2,1,06,01,27,210,37,03,82,220,45,04,53,275,44,06,17,322,40*72
$GPGSV,2,2,06,26,31,116,41,31,57,069,46,,,,,,,,*77
$GLGSV,2,1,05,65,26,297,40,72,70,006,41,73,42,053,35,74,48,126,36*60
$GLGSV,2,2,05,88,29,294,45,,,,,,,,,,,,*55
$GAGSV,1,1,03,07,52,070,45,26,23,198,35,29,67,276,44,,,,*57
$GNVTG,275.03,T,,M,0.02,N,0.05,K,D*22
$GNGST,011946.00,0.913,,,,0.458,0.239,0.683*6B
$GNZDA,011946.00,14,07,2025,00,00*74
$GNEBP,4915.6092831,N,12315.3241372,W,80.218,M*2F
$GNRMC,011947.00,A,4915.6148283,N,12315.3363638,W,0.41,275.03,140725,,,D*59
$GNGGA,011947.00,4915.6148283,N,12315.3363638,W,5,16,8.0,85.997,M,-19.036,M,1.0,0000*53
$GPGSA,A,3,01,03,04,06,26,31,,,,,,,12.3,8.0,9.4*01
$GLGSA,A,3,65,72,73,74,88,,,,,,,,12.3,8.0,9.4*1A
$GAGSA,A,3,07,26,29,,,,,,,,,,12.3,8.0,9.4*1E
$GBGSA,A,3,,,,,,,,,,,,,12.3,8.0,9.4*15
$GPGSV,2,1,06,01,27,210,37,03,82,220,45,04,53,275,44,06,17,322,40*72
$GPGSV,2,2,06,26,31,116,41,31,57,069,46,,,,,,,,*77
$GLGSV,2,1,05,65,26,297,41,72,70,006,42,73,42,053,36,74,48,126,36*61
$GLGSV,2,2,05,88,29,294,44,,,,,,,,,,,,*54
$GAGSV,1,1,03,07,52,070,45,26,23,198,35,29,67,276,45,,,,*56
$GNVTG,275.03,T,,M,0.41,N,0.77,K,D*20
$GNGST,011947.00,0.763,,,,1.782,0.396,2.472*6C
$GNZDA,011947.00,14,07,2025,00,00*75
$GNEBP,4915.6092831,N,12315.3241372,W,80.218,M*2F
$GNRMC,011948.00,A,4915.6155724,N,12315.3365896,W,2.54,177.84,140725,,,D*56
$GNGGA,011948.00,4915.6155724,N,12315.3365896,W,5,16,8.0,87.939,M,-19.036,M,2.0,0000*51
$GPGSA,A,3,01,03,04,06,26,31,,,,,,,12.3,8.0,9.4*01
$GLGSA,A,3,65,72,73,74,88,,,,,,,,12.3,8.0,9.4*1A
$GAGSA,A,3,07,26,29,,,,,,,,,,12.3,8.0,9.4*1E
$GBGSA,A,3,,,,,,,,,,,,,12.3,8.0,9.4*15
$GPGSV,2,1,06,01,27,210,37,03,82,220,45,04,53,275,44,06,17,322,40*72
$GPGSV,2,2,06,26,31,116,41,31,57,069,46,,,,,,,,*77
$GLGSV,2,1,05,65,26,297,41,72,70,006,41,73,42,053,36,74,48,126,36*62
$GLGSV,2,2,05,88,29,294,44,,,,,,,,,,,,*54
$GAGSV,1,1,03,07,52,070,45,26,23,198,35,29,67,276,44,,,,*57
$GNVTG,177.84,T,,M,2.54,N,4.71,K,D*2A
$GNGST,011948.00,0.950,,,,4.320,0.821,5.960*6A
$GNZDA,011948.00,14,07,2025,00,00*7A
$GNEBP,4915.6092831,N,12315.3241372,W,80.218,M*2F
$GNRMC,011949.00,A,4915.6172672,N,12315.3370737,W,5.59,154.64,140725,,,D*55
$GNGGA,011949.00,4915.6172672,N,12315.3370737,W,5,16,7.9,92.288,M,-19.035,M,1.0,0000*54
$GPGSA,A,3,01,03,04,06,26,31,,,,,,,12.3,7.9,9.4*07
$GLGSA,A,3,65,72,73,74,88,,,,,,,,12.3,7.9,9.4*1C
$GAGSA,A,3,07,26,29,,,,,,,,,,12.3,7.9,9.4*18
$GBGSA,A,3,,,,,,,,,,,,,12.3,7.9,9.4*13
$GPGSV,2,1,06,01,27,210,37,03,82,220,45,04,53,276,44,06,17,322,40*71
$GPGSV,2,2,06,26,31,116,41,31,57,069,46,,,,,,,,*77
$GLGSV,2,1,05,65,26,297,41,72,70,006,42,73,42,053,37,74,48,126,36*60
$GLGSV,2,2,05,88,29,294,43,,,,,,,,,,,,*53
$GAGSV,1,1,03,07,52,070,45,26,23,198,35,29,67,276,44,,,,*57
$GNVTG,154.64,T,,M,5.59,N,10.36,K,D*19
$GNGST,011949.00,1.168,,,,6.564,1.214,9.044*63
$GNZDA,011949.00,14,07,2025,00,00*7B
$GNEBP,4915.6092831,N,12315.3241372,W,80.218,M*2F
$GNRMC,011950.00,A,4915.6186295,N,12315.3374823,W,6.58,189.52,140725,,,D*52
$GNGGA,011950.00,4915.6186295,N,12315.3374823,W,5,16,7.9,95.814,M,-19.035,M,1.0,0000*5C
$GPGSA,A,3,01,03,04,06,26,31,,,,,,,12.3,7.9,9.4*07
$GLGSA,A,3,65,72,73,74,88,,,,,,,,12.3,7.9,9.4*1C
$GAGSA,A,3,07,26,29,,,,,,,,,,12.3,7.9,9.4*18
$GBGSA,A,3,,,,,,,,,,,,,12.3,7.9,9.4*13
$GPGSV,2,1,06,01,27,210,38,03,82,220,44,04,53,276,44,06,17,322,40*7F
$GPGSV,2,2,06,26,31,116,41,31,57,069,46,,,,,,,,*77
$GLGSV,2,1,05,65,26,297,41,72,70,006,42,73,42,053,37,74,48,126,35*63
$GLGSV,2,2,05,88,29,294,43,,,,,,,,,,,,*53
$GAGSV,1,1,03,07,52,070,45,26,23,198,35,29,67,276,44,,,,*57
$GNVTG,189.52,T,,M,6.58,N,12.18,K,D*10
$GNGST,011950.00,1.720,,,,7.383,1.355,10.163*57
$GNZDA,011950.00,14,07,2025,00,00*73
$GNEBP,4915.6092831,N,12315.3241372,W,80.218,M*2F
$GNRMC,011951.00,A,4915.6186763,N,12315.3375279,W,4.63,30.10,140725,,,D*64
$GNGGA,011951.00,4915.6186763,N,12315.3375279,W,5,15,7.9,95.981,M,-19.035,M,1.0,0000*5B
$GPGSA,A,3,01,03,04,06,26,31,,,,,,,12.3,7.9,9.4*07
$GLGSA,A,3,65,72,73,74,88,,,,,,,,12.3,7.9,9.4*1C
$GAGSA,A,3,07,26,29,,,,,,,,,,12.3,7.9,9.4*18
$GBGSA,A,3,,,,,,,,,,,,,12.3,7.9,9.4*13
$GPGSV,2,1,06,01,27,210,38,03,82,220,44,04,53,276,44,06,17,322,40*7F
$GPGSV,2,2,06,26,31,116,41,31,57,069,46,,,,,,,,*77
$GLGSV,2,1,05,65,26,297,42,72,70,006,41,73,42,053,37,74,48,126,35*63
$GLGSV,2,2,05,88,29,294,42,,,,,,,,,,,,*52
$GAGSV,1,1,03,07,52,070,44,26,23,198,35,29,67,276,45,,,,*57
$GNVTG,30.10,T,,M,4.63,N,8.57,K,D*1F
$GNGST,011951.00,1.987,,,,7.482,1.367,10.295*58
$GNZDA,011951.00,14,07,2025,00,00*72
$GNEBP,4915.6092831,N,12315.3241372,W,80.218,M*2F
$GNRMC,011952.00,A,4915.6171864,N,12315.3371335,W,0.42,299.91,140725,,,D*55
$GNGGA,011952.00,4915.6171864,N,12315.3371335,W,5,15,7.9,92.188,M,-19.035,M,1.0,0000*53
$GPGSA,A,3,01,03,04,06,26,31,,,,,,,12.3,7.9,9.4*07
$GLGSA,A,3,65,72,73,74,88,,,,,,,,12.3,7.9,9.4*1C
$GAGSA,A,3,07,26,29,,,,,,,,,,12.3,7.9,9.4*18
$GBGSA,A,3,,,,,,,,,,,,,12.3,7.9,9.4*13
$GPGSV,2,1,06,01,27,210,39,03,82,220,44,04,53,276,44,06,17,322,40*7E
$GPGSV,2,2,06,26,31,116,41,31,57,069,46,,,,,,,,*77
$GLGSV,2,1,05,65,26,297,42,72,70,006,42,73,42,053,37,74,48,125,35*63
$GLGSV,2,2,05,88,29,294,42,,,,,,,,,,,,*52
$GAGSV,1,1,03,07,52,070,44,26,23,198,35,29,67,276,45,,,,*57
$GNVTG,299.91,T,,M,0.42,N,0.78,K,D*25
$GNGST,011952.00,1.900,,,,3.937,0.731,5.390*65
$GNZDA,011952.00,14,07,2025,00,00*71
$GNEBP,4915.6092831,N,12315.3241372,W,80.218,M*2F
$GNRMC,011953.00,A,4915.6169095,N,12315.3370847,W,0.21,299.91,140725,,,D*51
$GNGGA,011953.00,4915.6169095,N,12315.3370847,W,5,15,7.9,91.507,M,-19.036,M,1.0,0000*51
$GPGSA,A,3,01,03,04,06,26,31,,,,,,,12.3,7.9,9.4*07
$GLGSA,A,3,65,72,73,74,88,,,,,,,,12.3,7.9,9.4*1C
$GAGSA,A,3,07,26,29,,,,,,,,,,12.3,7.9,9.4*18
$GBGSA,A,3,,,,,,,,,,,,,12.3,7.9,9.4*13
$GPGSV,2,1,06,01,27,210,39,03,82,220,44,04,53,276,43,06,17,322,39*77
$GPGSV,2,2,06,26,31,116,40,31,57,069,45,,,,,,,,*75
$GLGSV,2,1,05,65,26,297,42,72,70,006,41,73,42,053,37,74,48,125,35*60
$GLGSV,2,2,05,88,29,294,41,,,,,,,,,,,,*51
$GAGSV,1,1,03,07,52,070,44,26,23,198,35,29,67,276,44,,,,*56
$GNVTG,299.91,T,,M,0.21,N,0.38,K,D*24
$GNGST,011953.00,2.051,,,,3.527,0.656,4.816*63
$GNZDA,011953.00,14,07,2025,00,00*70
$GNEBP,4915.6092831,N,12315.3241372,W,80.218,M*2F
$GNRMC,011954.00,A,4915.6168433,N,12315.3370940,W,0.05,299.91,140725,,,D*5F
$GNGGA,011954.00,4915.6168433,N,12315.3370940,W,5,15,7.9,91.361,M,-19.036,M,1.0,0000*5F
$GPGSA,A,3,01,03,04,06,26,31,,,,,,,12.3,7.9,9.4*07
$GLGSA,A,3,65,72,73,74,88,,,,,,,,12.3,7.9,9.4*1C
$GAGSA,A,3,07,26,29,,,,,,,,,,12.3,7.9,9.4*18
$GBGSA,A,3,,,,,,,,,,,,,12.3,7.9,9.4*13
$GPGSV,2,1,06,01,27,210,39,03,82,220,44,04,53,276,43,06,17,322,39*77
$GPGSV,2,2,06,26,31,116,41,31,57,069,45,,,,,,,,*74
$GLGSV,2,1,05,65,26,297,42,72,70,006,41,73,42,053,37,74,48,125,35*60
$GLGSV,2,2,05,88,29,294,41,,,,,,,,,,,,*51
$GAGSV,1,1,03,07,52,070,44,26,23,198,35,29,67,276,44,,,,*56
$GNVTG,299.91,T,,M,0.05,N,0.09,K,D*20
$GNGST,011954.00,2.360,,,,3.335,0.619,4.544*61
$GNZDA,011954.00,14,07,2025,00,00*77
$GNEBP,4915.6092831,N,12315.3241372,W,80.218,M*2F
$GNRMC,011955.00,A,4915.6167904,N,12315.3371060,W,0.18,299.91,140725,,,D*5E
$GNGGA,011955.00,4915.6167904,N,12315.3371060,W,5,15,7.9,91.243,M,-19.036,M,1.0,0000*53
$GPGSA,A,3,01,03,04,06,26,31,,,,,,,12.3,7.9,9.4*07
$GLGSA,A,3,65,72,73,74,88,,,,,,,,12.3,7.9,9.4*1C
$GAGSA,A,3,07,26,29,,,,,,,,,,12.3,7.9,9.4*18
$GBGSA,A,3,,,,,,,,,,,,,12.3,7.9,9.4*13
$GPGSV,2,1,06,01,27,210,39,03,82,220,44,04,53,276,43,06,17,322,39*77
$GPGSV,2,2,06,26,31,116,41,31,57,069,45,,,,,,,,*74
$GLGSV,2,1,05,65,26,297,42,72,70,006,41,73,42,053,37,74,48,125,35*60
$GLGSV,2,2,05,88,29,294,41,,,,,,,,,,,,*51
$GAGSV,1,1,03,07,52,070,44,26,23,198,35,29,67,276,44,,,,*56
$GNVTG,299.91,T,,M,0.18,N,0.33,K,D*25
$GNGST,011955.00,2.396,,,,3.174,0.588,4.315*67
$GNZDA,011955.00,14,07,2025,00,00*76
$GNEBP,4915.6092831,N,12315.3241372,W,80.218,M*2F
$GNRMC,011956.00,A,4915.6167806,N,12315.3371337,W,0.09,299.91,140725,,,D*5F
$GNGGA,011956.00,4915.6167806,N,12315.3371337,W,5,14,7.9,91.239,M,-19.036,M,1.0,0000*5E
$GPGSA,A,3,01,03,04,06,26,31,,,,,,,12.2,7.9,9.3*01
$GLGSA,A,3,65,72,73,74,88,,,,,,,,12.2,7.9,9.3*1A
$GAGSA,A,3,07,29,,,,,,,,,,,12.2,7.9,9.3*1A
$GBGSA,A,3,,,,,,,,,,,,,12.2,7.9,9.3*15
$GPGSV,2,1,06,01,27,210,40,03,82,220,44,04,53,276,43,06,17,322,39*79
$GPGSV,2,2,06,26,31,116,41,31,57,068,46,,,,,,,,*76
$GLGSV,2,1,05,65,26,297,42,72,70,006,41,73,42,053,37,74,48,125,35*60
$GLGSV,2,2,05,88,29,294,41,,,,,,,,,,,,*51
$GAGSV,1,1,02,07,52,070,44,29,67,276,44,,,,,,,,*64
$GNVTG,299.91,T,,M,0.09,N,0.17,K,D*23
$GNGST,011956.00,2.462,,,,3.025,0.562,4.102*6D
$GNZDA,011956.00,14,07,2025,00,00*75
$GNEBP,4915.6092831,N,12315.3241372,W,80.218,M*2F
$GNRMC,011957.00,A,4915.6166685,N,12315.3371164,W,0.11,299.91,140725,,,D*57
$GNGGA,011957.00,4915.6166685,N,12315.3371164,W,5,14,7.9,90.948,M,-19.036,M,1.0,0000*53
$GPGSA,A,3,01,03,04,06,26,31,,,,,,,12.2,7.9,9.3*01
$GLGSA,A,3,65,72,73,74,88,,,,,,,,12.2,7.9,9.3*1A
$GAGSA,A,3,07,29,,,,,,,,,,,12.2,7.9,9.3*1A
$GBGSA,A,3,,,,,,,,,,,,,12.2,7.9,9.3*15
$GPGSV,2,1,06,01,27,210,40,03,82,220,44,04,53,276,43,06,17,322,39*79
$GPGSV,2,2,06,26,31,116,41,31,57,068,46,,,,,,,,*76
$GLGSV,2,1,05,65,26,297,43,72,70,006,41,73,42,053,37,74,48,125,35*61
$GLGSV,2,2,05,88,29,294,40,,,,,,,,,,,,*50
$GAGSV,1,1,02,07,52,070,44,29,67,276,44,,,,,,,,*64
$GNVTG,299.91,T,,M,0.11,N,0.21,K,D*2F
$GNGST,011957.00,2.194,,,,2.887,0.536,3.908*65
$GNZDA,011957.00,14,07,2025,00,00*74
$GNEBP,4915.6092831,N,12315.3241372,W,80.218,M*2F
$GNRMC,011958.00,A,4915.6164966,N,12315.3371044,W,0.36,299.91,140725,,,D*5E
$GNGGA,011958.00,4915.6164966,N,12315.3371044,W,5,14,7.9,90.522,M,-19.036,M,1.0,0000*5F
$GPGSA,A,3,01,03,04,06,26,31,,,,,,,12.2,7.9,9.3*01
$GLGSA,A,3,65,72,73,74,88,,,,,,,,12.2,7.9,9.3*1A
$GAGSA,A,3,07,29,,,,,,,,,,,12.2,7.9,9.3*1A
$GBGSA,A,3,,,,,,,,,,,,,12.2,7.9,9.3*15
$GPGSV,2,1,06,01,27,210,40,03,82,220,43,04,53,276,43,06,17,322,39*7E
$GPGSV,2,2,06,26,31,116,41,31,57,068,46,,,,,,,,*76
$GLGSV,2,1,05,65,26,297,43,72,70,006,41,73,42,053,37,74,48,125,36*62
$GLGSV,2,2,05,88,29,294,39,,,,,,,,,,,,*5E
$GAGSV,1,1,02,07,52,070,44,29,67,276,44,,,,,,,,*64
$GNVTG,299.91,T,,M,0.36,N,0.67,K,D*28
$GNGST,011958.00,2.045,,,,3.071,0.566,4.167*64
$GNZDA,011958.00,14,07,2025,00,00*7B
$GNEBP,4915.6092831,N,12315.3241372,W,80.218,M*2F
$GNRMC,011959.00,A,4915.6148000,N,12315.3366865,W,0.15,135.02,140725,,,D*5B
$GNGGA,011959.00,4915.6148000,N,12315.3366865,W,5,14,3.3,86.264,M,-19.036,M,1.0,0000*58
$GPGSA,A,3,01,03,04,06,26,31,,,,,,,4.1,3.3,2.5*36
$GLGSA,A,3,65,72,73,74,88,,,,,,,,4.1,3.3,2.5*2D
$GAGSA,A,3,07,29,,,,,,,,,,,4.1,3.3,2.5*2D
$GBGSA,A,3,,,,,,,,,,,,,4.1,3.3,2.5*22
$GPGSV,2,1,06,01,27,210,41,03,82,220,43,04,53,276,43,06,17,322,39*7F
$GPGSV,2,2,06,26,31,116,41,31,57,068,46,,,,,,,,*76
$GLGSV,2,1,05,65,26,297,43,72,70,006,41,73,42,053,37,74,48,125,36*62
$GLGSV,2,2,05,88,29,294,39,,,,,,,,,,,,*5E
$GAGSV,1,1,02,07,52,070,44,29,67,276,45,,,,,,,,*65
$GNVTG,135.02,T,,M,0.15,N,0.28,K,D*2D
$GNGST,011959.00,2.732,,,,0.307,0.223,0.475*67
$GNZDA,011959.00,14,07,2025,00,00*7A
$GNEBP,4915.6092831,N,12315.3241372,W,80.218,M*2F
$GNRMC,012000.00,A,4915.6148338,N,12315.3367001,W,0.14,135.02,140725,,,D*5F
$GNGGA,012000.00,4915.6148338,N,12315.3367001,W,5,14,7.9,86.345,M,-19.036,M,1.0,0000*51
$GPGSA,A,3,01,03,04,06,26,31,,,,,,,12.2,7.9,9.3*01
$GLGSA,A,3,65,72,73,74,88,,,,,,,,12.2,7.9,9.3*1A
$GAGSA,A,3,07,29,,,,,,,,,,,12.2,7.9,9.3*1A
$GBGSA,A,3,,,,,,,,,,,,,12.2,7.9,9.3*15
$GPGSV,2,1,06,01,27,210,41,03,82,220,43,04,53,276,44,06,17,322,39*78
$GPGSV,2,2,06,26,31,116,41,31,57,068,46,,,,,,,,*76
$GLGSV,2,1,05,65,26,297,43,72,70,006,41,73,42,053,36,74,48,125,35*60
$GLGSV,2,2,05,88,29,294,38,,,,,,,,,,,,*5F
$GAGSV,1,1,02,07,52,070,44,29,67,276,45,,,,,,,,*65
$GNVTG,135.02,T,,M,0.14,N,0.26,K,D*22
$GNGST,012000.00,1.268,,,,0.479,0.230,0.688*64
$GNZDA,012000.00,14,07,2025,00,00*7C
$GNEBP,4915.6092831,N,12315.3241372,W,80.218,M*2F
$GNRMC,012001.00,A,4915.6150186,N,12315.3367646,W,0.89,135.02,140725,,,D*51
$GNGGA,012001.00,4915.6150186,N,12315.3367646,W,5,14,7.9,86.847,M,-19.036,M,1.0,0000*52
$GPGSA,A,3,01,03,04,06,26,31,,,,,,,12.2,7.9,9.3*01
$GLGSA,A,3,65,72,73,74,88,,,,,,,,12.2,7.9,9.3*1A
$GAGSA,A,3,07,29,,,,,,,,,,,12.2,7.9,9.3*1A
$GBGSA,A,3,,,,,,,,,,,,,12.2,7.9,9.3*15
$GPGSV,2,1,06,01,27,210,41,03,82,219,43,04,53,276,44,06,17,322,39*72
$GPGSV,2,2,06,26,31,116,41,31,57,068,46,,,,,,,,*76
$GLGSV,2,1,05,65,26,297,43,72,70,006,41,73,42,053,36,74,48,125,36*63
$GLGSV,2,2,05,88,29,294,38,,,,,,,,,,,,*5F
$GAGSV,1,1,02,07,52,070,44,29,67,276,45,,,,,,,,*65
$GNVTG,135.02,T,,M,0.89,N,1.65,K,D*20
$GNGST,012001.00,1.075,,,,1.897,0.394,2.617*6D
$GNZDA,012001.00,14,07,2025,00,00*7D
$GNEBP,4915.6092831,N,12315.3241372,W,80.218,M*2F
$GNRMC,012002.00,A,4915.6165323,N,12315.3371684,W,5.01,145.61,140725,,,D*57
$GNGGA,012002.00,4915.6165323,N,12315.3371684,W,5,15,7.9,90.724,M,-19.036,M,1.0,0000*5F
$GPGSA,A,3,01,03,04,06,26,31,,,,,,,12.2,7.9,9.3*01
$GLGSA,A,3,65,72,73,74,88,,,,,,,,12.2,7.9,9.3*1A
$GAGSA,A,3,07,29,,,,,,,,,,,12.2,7.9,9.3*1A
$GBGSA,A,3,,,,,,,,,,,,,12.2,7.9,9.3*15
$GPGSV,2,1,06,01,27,210,41,03,82,219,43,04,53,276,44,06,17,322,39*72
$GPGSV,2,2,06,26,31,116,41,31,57,068,46,,,,,,,,*76
$GLGSV,2,1,05,65,26,297,43,72,70,006,41,73,42,053,35,74,48,125,36*60
$GLGSV,2,2,05,88,29,294,37,,,,,,,,,,,,*50
$GAGSV,1,1,02,07,52,070,44,29,67,276,45,,,,,,,,*65
$GNVTG,145.61,T,,M,5.01,N,9.28,K,D*26
$GNGST,012002.00,0.885,,,,4.474,0.808,6.161*60
$GNZDA,012002.00,14,07,2025,00,00*7E
$GNEBP,4915.6092831,N,12315.3241372,W,80.218,M*2F
$GNRMC,012003.00,A,4915.6197280,N,12315.3380481,W,10.66,348.28,140725,,,D*6D
$GNGGA,012003.00,4915.6197280,N,12315.3380481,W,5,13,7.9,98.913,M,-19.035,M,1.0,0000*55
$GPGSA,A,3,01,03,04,06,26,31,,,,,,,12.2,7.9,9.3*01
$GLGSA,A,3,65,72,74,88,,,,,,,,,12.2,7.9,9.3*1E
$GAGSA,A,3,07,29,,,,,,,,,,,12.2,7.9,9.3*1A
$GBGSA,A,3,,,,,,,,,,,,,12.2,7.9,9.3*15
$GPGSV,2,1,06,01,27,210,41,03,82,219,43,04,53,276,44,06,17,322,39*72
$GPGSV,2,2,06,26,31,116,41,31,57,068,46,,,,,,,,*76
$GLGSV,1,1,04,65,26,297,44,72,70,006,41,74,48,125,35,88,29,294,37*64
$GAGSV,1,1,02,07,52,070,44,29,67,276,45,,,,,,,,*65
$GNVTG,348.28,T,,M,10.66,N,19.75,K,D*28
$GNGST,012003.00,0.395,,,,6.591,1.163,9.069*60
$GNZDA,012003.00,14,07,2025,00,00*7F
$GNEBP,4915.6092831,N,12315.3241372,W,80.218,M*2F
$GNRMC,012004.00,A,4915.6161370,N,12315.3370794,W,0.51,213.00,140725,,,D*55
$GNGGA,012004.00,4915.6161370,N,12315.3370794,W,5,13,7.9,89.744,M,-19.036,M,1.0,0000*52
$GPGSA,A,3,01,03,04,06,26,31,,,,,,,12.2,7.9,9.3*01
$GLGSA,A,3,65,72,74,88,,,,,,,,,12.2,7.9,9.3*1E
$GAGSA,A,3,07,29,,,,,,,,,,,12.2,7.9,9.3*1A
$GBGSA,A,3,,,,,,,,,,,,,12.2,7.9,9.3*15
$GPGSV,2,1,06,01,27,210,41,03,82,219,43,04,53,276,44,06,17,322,39*72
$GPGSV,2,2,06,26,31,116,41,31,57,068,46,,,,,,,,*76
$GLGSV,1,1,04,65,26,297,44,72,70,006,41,74,48,125,36,88,29,294,37*67
$GAGSV,1,1,02,07,52,070,44,29,67,276,45,,,,,,,,*65
$GNVTG,213.00,T,,M,0.51,N,0.94,K,D*2F
$GNGST,012004.00,1.171,,,,2.520,0.481,3.460*6F
$GNZDA,012004.00,14,07,2025,00,00*78
$GNEBP,4915.6092831,N,12315.3241372,W,80.218,M*2F
$GNRMC,012005.00,A,4915.6161882,N,12315.3370785,W,0.11,213.00,140725,,,D*56
$GNGGA,012005.00,4915.6161882,N,12315.3370785,W,5,13,7.9,89.862,M,-19.036,M,1.0,0000*5E
$GPGSA,A,3,01,03,04,06,26,31,,,,,,,12.1,7.9,9.3*02
$GLGSA,A,3,65,72,74,88,,,,,,,,,12.1,7.9,9.3*1D
$GAGSA,A,3,07,29,,,,,,,,,,,12.1,7.9,9.3*19
$GBGSA,A,3,,,,,,,,,,,,,12.1,7.9,9.3*16
$GPGSV,2,1,06,01,27,210,40,03,82,219,43,04,53,276,44,06,17,322,39*73
$GPGSV,2,2,06,26,31,116,41,31,57,068,46,,,,,,,,*76
$GLGSV,1,1,04,65,26,297,44,72,70,006,42,74,48,125,36,88,29,294,37*64
$GAGSV,1,1,02,07,52,070,44,29,67,277,45,,,,,,,,*64
$GNVTG,213.00,T,,M,0.11,N,0.20,K,D*24
$GNGST,012005.00,1.535,,,,2.263,0.438,3.099*6A
$GNZDA,012005.00,14,07,2025,00,00*79
$GNEBP,4915.6092831,N,12315.3241372,W,80.218,M*2F
$GNRMC,012006.00,A,4915.6164437,N,12315.3371505,W,0.05,213.00,140725,,,D*5C
$GNGGA,012006.00,4915.6164437,N,12315.3371505,W,5,13,7.8,90.534,M,-19.036,M,2.0,0000*55
$GPGSA,A,3,01,03,04,06,26,31,,,,,,,12.1,7.8,9.3*03
$GLGSA,A,3,65,72,74,88,,,,,,,,,12.1,7.8,9.3*1C
$GAGSA,A,3,07,29,,,,,,,,,,,12.1,7.8,9.3*18
$GBGSA,A,3,,,,,,,,,,,,,12.1,7.8,9.3*17
$GPGSV,2,1,06,01,27,210,40,03,82,219,43,04,53,276,44,06,17,322,39*73
$GPGSV,2,2,06,26,31,116,41,31,57,068,46,,,,,,,,*76
$GLGSV,1,1,04,65,26,297,44,72,70,006,42,74,48,125,36,88,29,294,37*64
$GAGSV,1,1,02,07,52,070,44,29,68,277,45,,,,,,,,*6B
$GNVTG,213.00,T,,M,0.05,N,0.10,K,D*22
$GNGST,012006.00,1.537,,,,2.206,0.427,3.016*61
$GNZDA,012006.00,14,07,2025,00,00*7A
$GNEBP,4915.6092831,N,12315.3241372,W,80.218,M*2F
$GNRMC,012007.00,A,4915.6166748,N,12315.3371951,W,0.15,213.00,140725,,,D*58
$GNGGA,012007.00,4915.6166748,N,12315.3371951,W,5,13,7.8,91.123,M,-19.036,M,1.0,0000*50
$GPGSA,A,3,01,03,04,06,26,31,,,,,,,12.1,7.8,9.3*03
$GLGSA,A,3,65,72,74,88,,,,,,,,,12.1,7.8,9.3*1C
$GAGSA,A,3,07,29,,,,,,,,,,,12.1,7.8,9.3*18
$GBGSA,A,3,,,,,,,,,,,,,12.1,7.8,9.3*17
$GPGSV,2,1,06,01,27,210,40,03,82,219,43,04,53,276,44,06,17,322,39*73
$GPGSV,2,2,06,26,31,116,41,31,57,068,46,,,,,,,,*76
$GLGSV,1,1,04,65,26,297,45,72,70,006,41,74,48,125,36,88,29,294,37*66
$GAGSV,1,1,02,07,52,070,44,29,68,277,45,,,,,,,,*6B
$GNVTG,213.00,T,,M,0.15,N,0.27,K,D*27
$GNGST,012007.00,1.977,,,,2.155,0.417,2.941*64
$GNZDA,012007.00,14,07,2025,00,00*7B
$GNEBP,4915.6092831,N,12315.3241372,W,80.218,M*2F
$GNRMC,012008.00,A,4915.6169000,N,12315.3372323,W,0.20,213.00,140725,,,D*59
$GNGGA,012008.00,4915.6169000,N,12315.3372323,W,5,13,7.8,91.681,M,-19.036,M,1.0,0000*58
$GPGSA,A,3,01,03,04,06,26,31,,,,,,,12.1,7.8,9.2*02
$GLGSA,A,3,65,72,74,88,,,,,,,,,12.1,7.8,9.2*1D
$GAGSA,A,3,07,29,,,,,,,,,,,12.1,7.8,9.2*19
$GBGSA,A,3,,,,,,,,,,,,,12.1,7.8,9.2*16
$GPGSV,2,1,06,01,27,210,40,03,82,219,43,04,53,276,44,06,17,322,39*73
$GPGSV,2,2,06,26,31,116,41,31,57,068,46,,,,,,,,*76
$GLGSV,1,1,04,65,26,297,45,72,70,007,41,74,48,125,37,88,29,294,37*66
$GAGSV,1,1,02,07,52,070,44,29,68,277,44,,,,,,,,*6A
$GNVTG,213.00,T,,M,0.20,N,0.37,K,D*20
$GNGST,012008.00,1.998,,,,2.109,0.410,2.870*67
$GNZDA,012008.00,14,07,2025,00,00*74
$GNEBP,4915.6092831,N,12315.3241372,W,80.218,M*2F
$GNRMC,012009.00,A,4915.6171274,N,12315.3372520,W,0.06,213.00,140725,,,D*51
$GNGGA,012009.00,4915.6171274,N,12315.3372520,W,5,13,7.8,92.232,M,-19.035,M,1.0,0000*58
$GPGSA,A,3,01,03,04,06,26,31,,,,,,,12.1,7.8,9.2*02
$GLGSA,A,3,65,72,74,88,,,,,,,,,12.1,7.8,9.2*1D
$GAGSA,A,3,07,29,,,,,,,,,,,12.1,7.8,9.2*19
$GBGSA,A,3,,,,,,,,,,,,,12.1,7.8,9.2*16
$GPGSV,2,1,06,01,27,210,40,03,82,219,43,04,53,276,44,06,17,322,39*73
$GPGSV,2,2,06,26,31,116,41,31,57,068,46,,,,,,,,*76
$GLGSV,1,1,04,65,26,297,45,72,70,007,41,74,48,125,37,88,29,294,38*69
$GAGSV,1,1,02,07,52,070,44,29,68,277,44,,,,,,,,*6A
$GNVTG,213.00,T,,M,0.06,N,0.11,K,D*20
$GNGST,012009.00,2.210,,,,2.064,0.401,2.806*65
$GNZDA,012009.00,14,07,2025,00,00*75
$GNEBP,4915.6092831,N,12315.3241372,W,80.218,M*2F
$GNRMC,012010.00,A,4915.6174713,N,12315.3373188,W,0.56,213.00,140725,,,D*5A
$GNGGA,012010.00,4915.6174713,N,12315.3373188,W,5,13,7.8,93.093,M,-19.035,M,1.0,0000*5E
$GPGSA,A,3,01,03,04,06,26,31,,,,,,,12.1,7.8,9.2*02
$GLGSA,A,3,65,72,74,88,,,,,,,,,12.1,7.8,9.2*1D
$GAGSA,A,3,07,29,,,,,,,,,,,12.1,7.8,9.2*19
$GBGSA,A,3,,,,,,,,,,,,,12.1,7.8,9.2*16
$GPGSV,2,1,06,01,27,210,40,03,82,219,44,04,53,276,45,06,17,322,39*75
$GPGSV,2,2,06,26,31,116,41,31,57,068,46,,,,,,,,*76
$GLGSV,1,1,04,65,26,297,45,72,70,007,41,74,49,125,37,88,29,294,39*69
$GAGSV,1,1,02,07,52,070,44,29,68,277,44,,,,,,,,*6A
$GNVTG,213.00,T,,M,0.56,N,1.04,K,D*20
$GNGST,012010.00,1.873,,,,2.466,0.460,3.364*6E
$GNZDA,012010.00,14,07,2025,00,00*7D
$GNEBP,4915.6092831,N,12315.3241372,W,80.218,M*2F
$GNRMC,012011.00,A,4915.6180941,N,12315.3374381,W,1.89,227.76,140725,,,A*55
