$GNRMC,,,,,,,,,,,,*55
$GNGGA,,,,,,,,,,,,,,*48
$GPGSA,A,1,,,,,,,,,,,,,,,*1E
$GPGSV,1,1,0,,,,,,,,,,,,,,,,*49
$GNVTG,,,,,,,,,*60
$GNGST,,,,,,,,*49
$GNZDA,,,,,,*56
$GNEBP,,,,,,M*13
$GNRMC,,,,,,,,,,,,*55
$GNGGA,,,,,,,,,,,,,,*48
$GPGSA,A,1,,,,,,,,,,,,,,,*1E
$GPGSV,1,1,0,,,,,,,,,,,,,,,,*49
$GNVTG,,,,,,,,,*60
$GNGST,,,,,,,,*49
$GNZDA,,,,,,*56
$GNEBP,,,,,,M*13
$GNRMC,,,,,,,,,,,,*55
$GNGGA,,,,,,,,,,,,,,*48
$GPGSA,A,1,,,,,,,,,,,,,,,*1E
$GPGSV,1,1,0,,,,,,,,,,,,,,,,*49
$GNVTG,,,,,,,,,*60
$GNGST,,,,,,,,*49
$GNZDA,,,,,,*56
$GNEBP,,,,,,M*13
$GNRMC,,,,,,,,,,,,*55
$GNGGA,,,,,,,,,,,,,,*48
$GPGSA,A,1,,,,,,,,,,,,,,,*1E
$GPGSV,1,1,0,,,,,,,,,,,,,,,,*49
$GNVTG,,,,,,,,,*60
$GNGST,,,,,,,,*49
$GNZDA,,,,,,*56
$GNEBP,,,,,,M*13
$GNRMC,,,,,,,,,,,,*55
$GNGGA,,,,,,,,,,,,,,*48
$GPGSA,A,1,,,,,,,,,,,,,,,*1E
$GPGSV,1,1,0,,,,,,,,,,,,,,,,*49
$GNVTG,,,,,,,,,*60
$GNGST,,,,,,,,*49
$GNZDA,,,,,,*56
$GNEBP,,,,,,M*13
$GNRMC,,,,,,,,,,,,*55
$GNGGA,,,,,,,,,,,,,,*48
$GPGSA,A,1,,,,,,,,,,,,,,,*1E
$GPGSV,1,1,0,,,,,,,,,,,,,,,,*49
$GNVTG,,,,,,,,,*60
$GNGST,,,,,,,,*49
$GNZDA,,,,,,*56
$GNEBP,,,,,,M*13
$GNRMC,,,,,,,,,,,,*55
$GNGGA,,,,,,,,,,,,,,*48
$GPGSA,A,1,,,,,,,,,,,,,,,*1E
$GPGSV,1,1,0,,,,,,,,,,,,,,,,*49
$GNVTG,,,,,,,,,*60
$GNGST,,,,,,,,*49
$GNZDA,,,,,,*56
$GNEBP,,,,,,M*13
$GNRMC,,,,,,,,,,,,*55
$GNGGA,,,,,,,,,,,,,,*48
$GPGSA,A,1,,,,,,,,,,,,,,,*1E
$GPGSV,1,1,0,,,,,,,,,,,,,,,,*49
$GNVTG,,,,,,,,,*60
$GNGST,,,,,,,,*49
$GNZDA,,,,,,*56
$GNEBP,,,,,,M*13
$GNRMC,,,,,,,,,,,,*55
$GNGGA,,,,,,,,,,,,,,*48
$GPGSA,A,1,,,,,,,,,,,,,,,*1E
$GPGSV,1,1,0,,,,,,,,,,,,,,,,*49
$GNVTG,,,,,,,,,*60
$GNGST,,,,,,,,*49
$GNZDA,,,,,,*56
$GNEBP,,,,,,M*13
$GNRMC,,,,,,,,,,,,*55
$GNGGA,,,,,,,,,,,,,,*48
$GPGSA,A,1,,,,,,,,,,,,,,,*1E
$GPGSV,1,1,0,,,,,,,,,,,,,,,,*49
$GNVTG,,,,,,,,,*60
$GNGST,,,,,,,,*49
$GNZDA,,,,,,*56
$GNEBP,,,,,,M*13
$GNRMC,,,,,,,,,,,,*55
$GNGGA,,,,,,,,,,,,,,*48
$GPGSA,A,1,,,,,,,,,,,,,,,*1E
$GPGSV,1,1,0,,,,,,,,,,,,,,,,*49
$GNVTG,,,,,,,,,*60
$GNGST,,,,,,,,*49
$GNZDA,,,,,,*56
$GNEBP,,,,,,M*13
$GNRMC,,,,,,,,,,,,*55
$GNGGA,,,,,,,,,,,,,,*48
$GPGSA,A,1,,,,,,,,,,,,,,,*1E
$GPGSV,1,1,0,,,,,,,,,,,,,,,,*49
$GNVTG,,,,,,,,,*60
$GNGST,,,,,,,,*49
$GNZDA,,,,,,*56
$GNEBP,,,,,,M*13
$GNRMC,,,,,,,,,,,,*55
$GNGGA,,,,,,,,,,,,,,*48
$GPGSA,A,1,,,,,,,,,,,,,,,*1E
$GPGSV,1,1,0,,,,,,,,,,,,,,,,*49
$GNVTG,,,,,,,,,*60
$GNGST,,,,,,,,*49
$GNZDA,,,,,,*56
$GNEBP,,,,,,M*13
$GNRMC,,,,,,,,,,,,*55
$GNGGA,,,,,,,,,,,,,,*48
$GPGSA,A,1,,,,,,,,,,,,,,,*1E
$GPGSV,1,1,0,,,,,,,,,,,,,,,,*49
$GNVTG,,,,,,,,,*60
$GNGST,,,,,,,,*49
$GNZDA,,,,,,*56
$GNEBP,,,,,,M*13
$GNRMC,,,,,,,,,,,,*55
$GNGGA,,,,,,,,,,,,,,*48
$GPGSA,A,1,,,,,,,,,,,,,,,*1E
$GPGSV,1,1,0,,,,,,,,,,,,,,,,*49
$GNVTG,,,,,,,,,*60
$GNGST,,,,,,,,*49
$GNZDA,,,,,,*56
$GNEBP,,,,,,M*13
$GNRMC,,,,,,,,,,,,*55
$GNGGA,,,,,,,,,,,,,,*48
$GPGSA,A,1,,,,,,,,,,,,,,,*1E
$GPGSV,1,1,0,,,,,,,,,,,,,,,,*49
$GNVTG,,,,,,,,,*60
$GNGST,,,,,,,,*49
$GNZDA,,,,,,*56
$GNEBP,,,,,,M*13
$GNRMC,,,,,,,,,,,,*55
$GNGGA,,,,,,,,,,,,,,*48
$GPGSA,A,1,,,,,,,,,,,,,,,*1E
$GPGSV,1,1,0,,,,,,,,,,,,,,,,*49
$GNVTG,,,,,,,,,*60
$GNGST,,,,,,,,*49
$GNZDA,,,,,,*56
$GNEBP,,,,,,M*13
$GNRMC,,,,,,,,,,,,*55
$GNGGA,,,,,,,,,,,,,,*48
$GPGSA,A,1,,,,,,,,,,,,,,,*1E
$GPGSV,1,1,0,,,,,,,,,,,,,,,,*49
$GNVTG,,,,,,,,,*60
$GNGST,,,,,,,,*49
$GNZDA,,,,,,*56
$GNEBP,,,,,,M*13
$GNRMC,,,,,,,,,,,,*55
$GNGGA,,,,,,,,,,,,,,*48
$GPGSA,A,1,,,,,,,,,,,,,,,*1E
$GPGSV,1,1,0,,,,,,,,,,,,,,,,*49
$GNVTG,,,,,,,,,*60
$GNGST,,,,,,,,*49
$GNZDA,,,,,,*56
$GNEBP,,,,,,M*13
$GNRMC,,,,,,,,,,,,*55
$GNGGA,,,,,,,,,,,,,,*48
$GPGSA,A,1,,,,,,,,,,,,,,,*1E
$GPGSV,1,1,0,,,,,,,,,,,,,,,,*49
$GNVTG,,,,,,,,,*60
$GNGST,,,,,,,,*49
$GNZDA,,,,,,*56
$GNEBP,,,,,,M*13
$GNRMC,,,,,,,,,,,,*55
$GNGGA,,,,,,,,,,,,,,*48
$GPGSA,A,1,,,,,,,,,,,,,,,*1E
$GPGSV,1,1,0,,,,,,,,,,,,,,,,*49
$GNVTG,,,,,,,,,*60
$GNGST,,,,,,,,*49
$GNZDA,,,,,,*56
$GNEBP,,,,,,M*13
$GNRMC,,,,,,,,,,,,*55
$GNGGA,,,,,,,,,,,,,,*48
$GPGSA,A,1,,,,,,,,,,,,,,,*1E
$GPGSV,1,1,0,,,,,,,,,,,,,,,,*49
$GNVTG,,,,,,,,,*60
$GNGST,,,,,,,,*49
$GNZDA,,,,,,*56
$GNEBP,,,,,,M*13
$GNRMC,,,,,,,,,,,,*55
$GNGGA,,,,,,,,,,,,,,*48
$GPGSA,A,1,,,,,,,,,,,,,,,*1E
$GPGSV,1,1,0,,,,,,,,,,,,,,,,*49
$GNVTG,,,,,,,,,*60
$GNGST,,,,,,,,*49
$GNZDA,,,,,,*56
$GNEBP,,,,,,M*13
$GNRMC,,,,,,,,,,,,*55
$GNGGA,,,,,,,,,,,,,,*48
$GPGSA,A,1,,,,,,,,,,,,,,,*1E
$GPGSV,1,1,0,,,,,,,,,,,,,,,,*49
$GNVTG,,,,,,,,,*60
$GNGST,,,,,,,,*49
$GNZDA,,,,,,*56
$GNEBP,,,,,,M*13
$GNRMC,,,,,,,,,,,,*55
$GNGGA,,,,,,,,,,,,,,*48
$GPGSA,A,1,,,,,,,,,,,,,,,*1E
$GPGSV,1,1,0,,,,,,,,,,,,,,,,*49
$GNVTG,,,,,,,,,*60
$GNGST,,,,,,,,*49
$GNZDA,,,,,,*56
$GNEBP,,,,,,M*13
$GNRMC,,,,,,,,,,,,*55
$GNGGA,,,,,,,,,,,,,,*48
$GPGSA,A,1,,,,,,,,,,,,,,,*1E
$GPGSV,1,1,0,,,,,,,,,,,,,,,,*49
$GNVTG,,,,,,,,,*60
$GNGST,,,,,,,,*49
$GNZDA,,,,,,*56
$GNEBP,,,,,,M*13
$GNRMC,,,,,,,,,,,,*55
$GNGGA,,,,,,,,,,,,,,*48
$GPGSA,A,1,,,,,,,,,,,,,,,*1E
$GPGSV,1,1,0,,,,,,,,,,,,,,,,*49
$GNVTG,,,,,,,,,*60
$GNGST,,,,,,,,*49
$GNZDA,,,,,,*56
$GNEBP,,,,,,M*13
$GNRMC,,,,,,,,,,,,*55
$GNGGA,,,,,,,,,,,,,,*48
$GPGSA,A,1,,,,,,,,,,,,,,,*1E
$GPGSV,1,1,0,,,,,,,,,,,,,,,,*49
$GNVTG,,,,,,,,,*60
$GNGST,,,,,,,,*49
$GNZDA,,,,,,*56
$GNEBP,,,,,,M*13
$GNRMC,,,,,,,,,,,,*55
$GNGGA,,,,,,,,,,,,,,*48
$GPGSA,A,1,,,,,,,,,,,,,,,*1E
$GPGSV,1,1,0,,,,,,,,,,,,,,,,*49
$GNVTG,,,,,,,,,*60
$GNGST,,,,,,,,*49
$GNZDA,,,,,,*56
$GNEBP,,,,,,M*13
$GNRMC,,,,,,,,,,,,*55
$GNGGA,,,,,,,,,,,,,,*48
$GPGSA,A,1,,,,,,,,,,,,,,,*1E
$GPGSV,1,1,0,,,,,,,,,,,,,,,,*49
$GNVTG,,,,,,,,,*60
$GNGST,,,,,,,,*49
$GNZDA,,,,,,*56
$GNEBP,,,,,,M*13
$GNRMC,,,,,,,,,,,,*55
$GNGGA,,,,,,,,,,,,,,*48
$GPGSA,A,1,,,,,,,,,,,,,,,*1E
$GPGSV,1,1,0,,,,,,,,,,,,,,,,*49
$GNVTG,,,,,,,,,*60
$GNGST,,,,,,,,*49
$GNZDA,,,,,,*56
$GNEBP,,,,,,M*13
$GNRMC,,,,,,,,,,,,*55
$GNGGA,,,,,,,,,,,,,,*48
$GPGSA,A,1,,,,,,,,,,,,,,,*1E
$GPGSV,1,1,0,,,,,,,,,,,,,,,,*49
$GNVTG,,,,,,,,,*60
$GNGST,,,,,,,,*49
$GNZDA,,,,,,*56
$GNEBP,,,,,,M*13
$GNRMC,,,,,,,,,,,,*55
$GNGGA,,,,,,,,,,,,,,*48
$GPGSA,A,1,,,,,,,,,,,,,,,*1E
$GPGSV,1,1,0,,,,,,,,,,,,,,,,*49
$GNVTG,,,,,,,,,*60
$GNGST,,,,,,,,*49
$GNZDA,,,,,,*56
$GNEBP,,,,,,M*13
$GNRMC,,,,,,,,,,,,*55
$GNGGA,,,,,,,,,,,,,,*48
$GPGSA,A,1,,,,,,,,,,,,,,,*1E
$GPGSV,1,1,0,,,,,,,,,,,,,,,,*49
$GNVTG,,,,,,,,,*60
$GNGST,,,,,,,,*49
$GNZDA,,,,,,*56
$GNEBP,,,,,,M*13
$GNRMC,,,,,,,,,,,,*55
$GNGGA,,,,,,,,,,,,,,*48
$GPGSA,A,1,,,,,,,,,,,,,,,*1E
$GPGSV,1,1,0,,,,,,,,,,,,,,,,*49
$GNVTG,,,,,,,,,*60
$GNGST,,,,,,,,*49
$GNZDA,,,,,,*56
$GNEBP,,,,,,M*13
$GNRMC,,,,,,,,,,,,*55
$GNGGA,,,,,,,,,,,,,,*48
$GPGSA,A,1,,,,,,,,,,,,,,,*1E
$GPGSV,1,1,0,,,,,,,,,,,,,,,,*49
$GNVTG,,,,,,,,,*60
$GNGST,,,,,,,,*49
$GNZDA,,,,,,*56
$GNEBP,,,,,,M*13
$GNRMC,,,,,,,,,,,,*55
$GNGGA,,,,,,,,,,,,,,*48
$GPGSA,A,1,,,,,,,,,,,,,,,*1E
$GPGSV,1,1,0,,,,,,,,,,,,,,,,*49
$GNVTG,,,,,,,,,*60
$GNGST,,,,,,,,*49
$GNZDA,,,,,,*56
$GNEBP,,,,,,M*13
$GNRMC,,,,,,,,,,,,*55
$GNGGA,,,,,,,,,,,,,,*48
$GPGSA,A,1,,,,,,,,,,,,,,,*1E
$GPGSV,1,1,0,,,,,,,,,,,,,,,,*49
$GNVTG,,,,,,,,,*60
$GNGST,,,,,,,,*49
$GNZDA,,,,,,*56
$GNEBP,,,,,,M*13
$GNRMC,,,,,,,,,,,,*55
$GNGGA,,,,,,,,,,,,,,*48
$GPGSA,A,1,,,,,,,,,,,,,,,*1E
$GPGSV,1,1,0,,,,,,,,,,,,,,,,*49
$GNVTG,,,,,,,,,*60
$GNGST,,,,,,,,*49
$GNZDA,,,,,,*56
$GNEBP,,,,,,M*13
$GNRMC,,,,,,,,,,,,*55
$GNGGA,,,,,,,,,,,,,,*48
$GPGSA,A,1,,,,,,,,,,,,,,,*1E
$GPGSV,1,1,0,,,,,,,,,,,,,,,,*49
$GNVTG,,,,,,,,,*60
$GNGST,,,,,,,,*49
$GNZDA,,,,,,*56
$GNEBP,,,,,,M*13
$GNRMC,,,,,,,,,,,,*55
$GNGGA,,,,,,,,,,,,,,*48
$GPGSA,A,1,,,,,,,,,,,,,,,*1E
$GPGSV,1,1,0,,,,,,,,,,,,,,,,*49
$GNVTG,,,,,,,,,*60
$GNGST,,,,,,,,*49
$GNZDA,,,,,,*56
$GNEBP,,,,,,M*13
$GNRMC,,,,,,,,,,,,*55
$GNGGA,,,,,,,,,,,,,,*48
$GPGSA,A,1,,,,,,,,,,,,,,,*1E
$GPGSV,1,1,0,,,,,,,,,,,,,,,,*49
$GNVTG,,,,,,,,,*60
$GNGST,,,,,,,,*49
$GNZDA,,,,,,*56
$GNEBP,,,,,,M*13
$GNRMC,,,,,,,,,,,,*55
$GNGGA,,,,,,,,,,,,,,*48
$GPGSA,A,1,,,,,,,,,,,,,,,*1E
$GPGSV,1,1,0,,,,,,,,,,,,,,,,*49
$GNVTG,,,,,,,,,*60
$GNGST,,,,,,,,*49
$GNZDA,,,,,,*56
$GNEBP,,,,,,M*13
$GNRMC,,,,,,,,,,,,*55
$GNGGA,,,,,,,,,,,,,,*48
$GPGSA,A,1,,,,,,,,,,,,,,,*1E
$GPGSV,1,1,0,,,,,,,,,,,,,,,,*49
$GNVTG,,,,,,,,,*60
$GNGST,,,,,,,,*49
$GNZDA,,,,,,*56
$GNEBP,,,,,,M*13
$GNRMC,,,,,,,,,,,,*55
$GNGGA,,,,,,,,,,,,,,*48
$GPGSA,A,1,,,,,,,,,,,,,,,*1E
$GPGSV,1,1,0,,,,,,,,,,,,,,,,*49
$GNVTG,,,,,,,,,*60
$GNGST,,,,,,,,*49
$GNZDA,,,,,,*56
$GNEBP,,,,,,M*13
$GNRMC,,,,,,,,,,,,*55
$GNGGA,,,,,,,,,,,,,,*48
$GPGSA,A,1,,,,,,,,,,,,,,,*1E
$GPGSV,1,1,0,,,,,,,,,,,,,,,,*49
$GNVTG,,,,,,,,,*60
$GNGST,,,,,,,,*49
$GNZDA,,,,,,*56
$GNEBP,,,,,,M*13
$GNRMC,,,,,,,,,,,,*55
$GNGGA,,,,,,,,,,,,,,*48
$GPGSA,A,1,,,,,,,,,,,,,,,*1E
$GPGSV,1,1,0,,,,,,,,,,,,,,,,*49
$GNVTG,,,,,,,,,*60
$GNGST,,,,,,,,*49
$GNZDA,,,,,,*56
$GNEBP,,,,,,M*13
$GNRMC,,,,,,,,,,,,*55
$GNGGA,,,,,,,,,,,,,,*48
$GPGSA,A,1,,,,,,,,,,,,,,,*1E
$GPGSV,1,1,0,,,,,,,,,,,,,,,,*49
$GNVTG,,,,,,,,,*60
$GNGST,,,,,,,,*49
$GNZDA,,,,,,*56
$GNEBP,,,,,,M*13
$GNRMC,,,,,,,,,,,,*55
$GNGGA,,,,,,,,,,,,,,*48
$GPGSA,A,1,,,,,,,,,,,,,,,*1E
$GPGSV,1,1,0,,,,,,,,,,,,,,,,*49
$GNVTG,,,,,,,,,*60
$GNGST,,,,,,,,*49
$GNZDA,,,,,,*56
$GNEBP,,,,,,M*13
$GNRMC,,,,,,,,,,,,*55
$GNGGA,,,,,,,,,,,,,,*48
$GPGSA,A,1,,,,,,,,,,,,,,,*1E
$GPGSV,1,1,0,,,,,,,,,,,,,,,,*49
$GNVTG,,,,,,,,,*60
$GNGST,,,,,,,,*49
$GNZDA,,,,,,*56
$GNEBP,,,,,,M*13
$GNRMC,,,,,,,,,,,,*55
$GNGGA,,,,,,,,,,,,,,*48
$GPGSA,A,1,,,,,,,,,,,,,,,*1E
$GPGSV,1,1,0,,,,,,,,,,,,,,,,*49
$GNVTG,,,,,,,,,*60
$GNGST,,,,,,,,*49
$GNZDA,,,,,,*56
$GNEBP,,,,,,M*13
$GNRMC,,,,,,,,,,,,*55
$GNGGA,,,,,,,,,,,,,,*48
$GPGSA,A,1,,,,,,,,,,,,,,,*1E
$GPGSV,1,1,0,,,,,,,,,,,,,,,,*49
$GNVTG,,,,,,,,,*60
$GNGST,,,,,,,,*49
$GNZDA,,,,,,*56
$GNEBP,,,,,,M*13
$GNRMC,,,,,,,,,,,,*55
$GNGGA,,,,,,,,,,,,,,*48
$GPGSA,A,1,,,,,,,,,,,,,,,*1E
$GPGSV,1,1,0,,,,,,,,,,,,,,,,*49
$GNVTG,,,,,,,,,*60
$GNGST,,,,,,,,*49
$GNZDA,,,,,,*56
$GNEBP,,,,,,M*13
$GNRMC,,,,,,,,,,,,*55
$GNGGA,,,,,,,,,,,,,,*48
$GPGSA,A,1,,,,,,,,,,,,,,,*1E
$GPGSV,1,1,0,,,,,,,,,,,,,,,,*49
$GNVTG,,,,,,,,,*60
$GNGST,,,,,,,,*49
$GNZDA,,,,,,*56
$GNEBP,,,,,,M*13
$GNRMC,,,,,,,,,,,,*55
$GNGGA,,,,,,,,,,,,,,*48
$GPGSA,A,1,,,,,,,,,,,,,,,*1E
$GPGSV,1,1,0,,,,,,,,,,,,,,,,*49
$GNVTG,,,,,,,,,*60
$GNGST,,,,,,,,*49
$GNZDA,,,,,,*56
$GNEBP,,,,,,M*13
$GNRMC,,,,,,,,,,,,*55
$GNGGA,,,,,,,,,,,,,,*48
$GPGSA,A,1,,,,,,,,,,,,,,,*1E
$GPGSV,1,1,0,,,,,,,,,,,,,,,,*49
$GNVTG,,,,,,,,,*60
$GNGST,,,,,,,,*49
$GNZDA,,,,,,*56
$GNEBP,,,,,,M*13
$GNRMC,,,,,,,,,,,,*55
$GNGGA,,,,,,,,,,,,,,*48
$GPGSA,A,1,,,,,,,,,,,,,,,*1E
$GPGSV,1,1,0,,,,,,,,,,,,,,,,*49
$GNVTG,,,,,,,,,*60
$GNGST,,,,,,,,*49
$GNZDA,,,,,,*56
$GNEBP,,,,,,M*13
$GNRMC,,,,,,,,,,,,*55
$GNGGA,,,,,,,,,,,,,,*48
$GPGSA,A,1,,,,,,,,,,,,,,,*1E
$GPGSV,1,1,0,,,,,,,,,,,,,,,,*49
$GNVTG,,,,,,,,,*60
$GNGST,,,,,,,,*49
$GNZDA,,,,,,*56
$GNEBP,,,,,,M*13
$GNRMC,,,,,,,,,,,,*55
$GNGGA,,,,,,,,,,,,,,*48
$GPGSA,A,1,,,,,,,,,,,,,,,*1E
$GPGSV,1,1,0,,,,,,,,,,,,,,,,*49
$GNVTG,,,,,,,,,*60
$GNGST,,,,,,,,*49
$GNZDA,,,,,,*56
$GNEBP,,,,,,M*13
$GNRMC,,,,,,,,,,,,*55
$GNGGA,,,,,,,,,,,,,,*48
$GPGSA,A,1,,,,,,,,,,,,,,,*1E
$GPGSV,1,1,0,,,,,,,,,,,,,,,,*49
$GNVTG,,,,,,,,,*60
$GNGST,,,,,,,,*49
$GNZDA,,,,,,*56
$GNEBP,,,,,,M*13
$GNRMC,,,,,,,,,,,,*55
$GNGGA,,,,,,,,,,,,,,*48
$GPGSA,A,1,,,,,,,,,,,,,,,*1E
$GPGSV,1,1,0,,,,,,,,,,,,,,,,*49
$GNVTG,,,,,,,,,*60
$GNGST,,,,,,,,*49
$GNZDA,,,,,,*56
$GNEBP,,,,,,M*13
$GNRMC,,,,,,,,,,,,*55
$GNGGA,,,,,,,,,,,,,,*48
$GPGSA,A,1,,,,,,,,,,,,,,,*1E
$GPGSV,1,1,0,,,,,,,,,,,,,,,,*49
$GNVTG,,,,,,,,,*60
$GNGST,,,,,,,,*49
$GNZDA,,,,,,*56
$GNEBP,,,,,,M*13
$GNRMC,,,,,,,,,,,,*55
$GNGGA,,,,,,,,,,,,,,*48
$GPGSA,A,1,,,,,,,,,,,,,,,*1E
$GPGSV,1,1,0,,,,,,,,,,,,,,,,*49
$GNVTG,,,,,,,,,*60
$GNGST,,,,,,,,*49
$GNZDA,,,,,,*56
$GNEBP,,,,,,M*13
$GNRMC,,,,,,,,,,,,*55
$GNGGA,,,,,,,,,,,,,,*48
$GPGSA,A,1,,,,,,,,,,,,,,,*1E
$GPGSV,1,1,0,,,,,,,,,,,,,,,,*49
$GNVTG,,,,,,,,,*60
$GNGST,,,,,,,,*49
$GNZDA,,,,,,*56
$GNEBP,,,,,,M*13
$GNRMC,,,,,,,,,,,,*55
$GNGGA,,,,,,,,,,,,,,*48
$GPGSA,A,1,,,,,,,,,,,,,,,*1E
$GPGSV,1,1,0,,,,,,,,,,,,,,,,*49
$GNVTG,,,,,,,,,*60
$GNGST,,,,,,,,*49
$GNZDA,,,,,,*56
$GNEBP,,,,,,M*13
$GNRMC,,,,,,,,,,,,*55
$GNGGA,,,,,,,,,,,,,,*48
$GPGSA,A,1,,,,,,,,,,,,,,,*1E
$GPGSV,1,1,0,,,,,,,,,,,,,,,,*49
$GNVTG,,,,,,,,,*60
$GNGST,,,,,,,,*49
$GNZDA,,,,,,*56
$GNEBP,,,,,,M*13
$GNRMC,,,,,,,,,,,,*55
$GNGGA,,,,,,,,,,,,,,*48
$GPGSA,A,1,,,,,,,,,,,,,,,*1E
$GPGSV,1,1,0,,,,,,,,,,,,,,,,*49
$GNVTG,,,,,,,,,*60
$GNGST,,,,,,,,*49
$GNZDA,,,,,,*56
$GNEBP,,,,,,M*13
$GNRMC,,,,,,,,,,,,*55
$GNGGA,,,,,,,,,,,,,,*48
$GPGSA,A,1,,,,,,,,,,,,,,,*1E
$GPGSV,1,1,0,,,,,,,,,,,,,,,,*49
$GNVTG,,,,,,,,,*60
$GNGST,,,,,,,,*49
$GNZDA,,,,,,*56
$GNEBP,,,,,,M*13
$GNRMC,,,,,,,,,,,,*55
$GNGGA,,,,,,,,,,,,,,*48
$GPGSA,A,1,,,,,,,,,,,,,,,*1E
$GPGSV,1,1,0,,,,,,,,,,,,,,,,*49
$GNVTG,,,,,,,,,*60
$GNGST,,,,,,,,*49
$GNZDA,,,,,,*56
$GNEBP,,,,,,M*13
$GNRMC,,,,,,,,,,,,*55
$GNGGA,,,,,,,,,,,,,,*48
$GPGSA,A,1,,,,,,,,,,,,,,,*1E
$GPGSV,1,1,0,,,,,,,,,,,,,,,,*49
$GNVTG,,,,,,,,,*60
$GNGST,,,,,,,,*49
$GNZDA,,,,,,*56
$GNEBP,,,,,,M*13
$GNRMC,,,,,,,,,,,,*55
$GNGGA,,,,,,,,,,,,,,*48
$GPGSA,A,1,,,,,,,,,,,,,,,*1E
$GPGSV,1,1,0,,,,,,,,,,,,,,,,*49
$GNVTG,,,,,,,,,*60
$GNGST,,,,,,,,*49
$GNZDA,,,,,,*56
$GNEBP,,,,,,M*13
$GNRMC,,,,,,,,,,,,*55
$GNGGA,,,,,,,,,,,,,,*48
$GPGSA,A,1,,,,,,,,,,,,,,,*1E
$GPGSV,1,1,0,,,,,,,,,,,,,,,,*49
$GNVTG,,,,,,,,,*60
$GNGST,,,,,,,,*49
$GNZDA,,,,,,*56
$GNEBP,,,,,,M*13
$GNRMC,,,,,,,,,,,,*55
$GNGGA,,,,,,,,,,,,,,*48
$GPGSA,A,1,,,,,,,,,,,,,,,*1E
$GPGSV,1,1,0,,,,,,,,,,,,,,,,*49
$GNVTG,,,,,,,,,*60
$GNGST,,,,,,,,*49
$GNZDA,,,,,,*56
$GNEBP,,,,,,M*13
$GNRMC,,,,,,,,,,,,*55
$GNGGA,,,,,,,,,,,,,,*48
$GPGSA,A,1,,,,,,,,,,,,,,,*1E
$GPGSV,1,1,0,,,,,,,,,,,,,,,,*49
$GNVTG,,,,,,,,,*60
$GNGST,,,,,,,,*49
$GNZDA,,,,,,*56
$GNEBP,,,,,,M*13
$GNRMC,,,,,,,,,,,,*55
$GNGGA,,,,,,,,,,,,,,*48
$GPGSA,A,1,,,,,,,,,,,,,,,*1E
$GPGSV,1,1,0,,,,,,,,,,,,,,,,*49
$GNVTG,,,,,,,,,*60
$GNGST,,,,,,,,*49
$GNZDA,,,,,,*56
$GNEBP,,,,,,M*13
$GNRMC,,,,,,,,,,,,*55
$GNGGA,,,,,,,,,,,,,,*48
$GPGSA,A,1,,,,,,,,,,,,,,,*1E
$GPGSV,1,1,0,,,,,,,,,,,,,,,,*49
$GNVTG,,,,,,,,,*60
$GNGST,,,,,,,,*49
$GNZDA,,,,,,*56
$GNEBP,,,,,,M*13
$GNRMC,,,,,,,,,,,,*55
$GNGGA,,,,,,,,,,,,,,*48
$GPGSA,A,1,,,,,,,,,,,,,,,*1E
$GPGSV,1,1,0,,,,,,,,,,,,,,,,*49
$GNVTG,,,,,,,,,*60
$GNGST,,,,,,,,*49
$GNZDA,,,,,,*56
$GNEBP,,,,,,M*13
$GNRMC,,,,,,,,,,,,*55
$GNGGA,,,,,,,,,,,,,,*48
$GPGSA,A,1,,,,,,,,,,,,,,,*1E
$GPGSV,1,1,0,,,,,,,,,,,,,,,,*49
$GNVTG,,,,,,,,,*60
$GNGST,,,,,,,,*49
$GNZDA,,,,,,*56
$GNEBP,,,,,,M*13
$GNRMC,,,,,,,,,,,,*55
$GNGGA,,,,,,,,,,,,,,*48
$GPGSA,A,1,,,,,,,,,,,,,,,*1E
$GPGSV,1,1,0,,,,,,,,,,,,,,,,*49
$GNVTG,,,,,,,,,*60
$GNGST,,,,,,,,*49
$GNZDA,,,,,,*56
$GNEBP,,,,,,M*13
$GNRMC,,,,,,,,,,,,*55
$GNGGA,,,,,,,,,,,,,,*48
$GPGSA,A,1,,,,,,,,,,,,,,,*1E
$GPGSV,1,1,0,,,,,,,,,,,,,,,,*49
$GNVTG,,,,,,,,,*60
$GNGST,,,,,,,,*49
$GNZDA,,,,,,*56
$GNEBP,,,,,,M*13
$GNRMC,,,,,,,,,,,,*55
$GNGGA,,,,,,,,,,,,,,*48
$GPGSA,A,1,,,,,,,,,,,,,,,*1E
$GPGSV,1,1,0,,,,,,,,,,,,,,,,*49
$GNVTG,,,,,,,,,*60
$GNGST,,,,,,,,*49
$GNZDA,,,,,,*56
$GNEBP,,,,,,M*13
$GNRMC,,,,,,,,,,,,*55
$GNGGA,,,,,,,,,,,,,,*48
$GPGSA,A,1,,,,,,,,,,,,,,,*1E
$GPGSV,1,1,0,,,,,,,,,,,,,,,,*49
$GNVTG,,,,,,,,,*60
$GNGST,,,,,,,,*49
$GNZDA,,,,,,*56
$GNEBP,,,,,,M*13
$GNRMC,,,,,,,,,,,,*55
$GNGGA,,,,,,,,,,,,,,*48
$GPGSA,A,1,,,,,,,,,,,,,,,*1E
$GPGSV,1,1,0,,,,,,,,,,,,,,,,*49
$GNVTG,,,,,,,,,*60
$GNGST,,,,,,,,*49
$GNZDA,,,,,,*56
$GNEBP,,,,,,M*13
$GNRMC,,,,,,,,,,,,*55
$GNGGA,,,,,,,,,,,,,,*48
$GPGSA,A,1,,,,,,,,,,,,,,,*1E
$GPGSV,1,1,0,,,,,,,,,,,,,,,,*49
$GNVTG,,,,,,,,,*60
$GNGST,,,,,,,,*49
$GNZDA,,,,,,*56
$GNEBP,,,,,,M*13
$GNRMC,,,,,,,,,,,,*55
$GNGGA,,,,,,,,,,,,,,*48
$GPGSA,A,1,,,,,,,,,,,,,,,*1E
$GPGSV,1,1,0,,,,,,,,,,,,,,,,*49
$GNVTG,,,,,,,,,*60
$GNGST,,,,,,,,*49
$GNZDA,,,,,,*56
$GNEBP,,,,,,M*13
$GNRMC,,,,,,,,,,,,*55
$GNGGA,,,,,,,,,,,,,,*48
$GPGSA,A,1,,,,,,,,,,,,,,,*1E
$GPGSV,1,1,0,,,,,,,,,,,,,,,,*49
$GNVTG,,,,,,,,,*60
$GNGST,,,,,,,,*49
$GNZDA,,,,,,*56
$GNEBP,,,,,,M*13
$GNRMC,,,,,,,,,,,,*55
$GNGGA,,,,,,,,,,,,,,*48
$GPGSA,A,1,,,,,,,,,,,,,,,*1E
$GPGSV,1,1,0,,,,,,,,,,,,,,,,*49
$GNVTG,,,,,,,,,*60
$GNGST,,,,,,,,*49
$GNZDA,,,,,,*56
$GNEBP,,,,,,M*13
$GNRMC,,,,,,,,,,,,*55
$GNGGA,,,,,,,,,,,,,,*48
$GPGSA,A,1,,,,,,,,,,,,,,,*1E
$GPGSV,1,1,0,,,,,,,,,,,,,,,,*49
$GNVTG,,,,,,,,,*60
$GNGST,,,,,,,,*49
$GNZDA,,,,,,*56
$GNEBP,,,,,,M*13
$GNRMC,,,,,,,,,,,,*55
$GNGGA,,,,,,,,,,,,,,*48
$GPGSA,A,1,,,,,,,,,,,,,,,*1E
$GPGSV,1,1,0,,,,,,,,,,,,,,,,*49
$GNVTG,,,,,,,,,*60
$GNGST,,,,,,,,*49
$GNZDA,,,,,,*56
$GNEBP,,,,,,M*13
$GNRMC,,,,,,,,,,,,*55
$GNGGA,,,,,,,,,,,,,,*48
$GPGSA,A,1,,,,,,,,,,,,,,,*1E
$GPGSV,1,1,0,,,,,,,,,,,,,,,,*49
$GNVTG,,,,,,,,,*60
$GNGST,,,,,,,,*49
$GNZDA,,,,,,*56
$GNEBP,,,,,,M*13
$GNRMC,,,,,,,,,,,,*55
$GNGGA,,,,,,,,,,,,,,*48
$GPGSA,A,1,,,,,,,,,,,,,,,*1E
$GPGSV,1,1,0,,,,,,,,,,,,,,,,*49
$GNVTG,,,,,,,,,*60
$GNGST,,,,,,,,*49
$GNZDA,,,,,,*56
$GNEBP,,,,,,M*13
$GNRMC,,,,,,,,,,,,*55
$GNGGA,,,,,,,,,,,,,,*48
$GPGSA,A,1,,,,,,,,,,,,,,,*1E
$GPGSV,1,1,0,,,,,,,,,,,,,,,,*49
$GNVTG,,,,,,,,,*60
$GNGST,,,,,,,,*49
$GNZDA,,,,,,*56
$GNEBP,,,,,,M*13
$GNRMC,,,,,,,,,,,,*55
$GNGGA,,,,,,,,,,,,,,*48
$GPGSA,A,1,,,,,,,,,,,,,,,*1E
$GPGSV,1,1,0,,,,,,,,,,,,,,,,*49
$GNVTG,,,,,,,,,*60
$GNGST,,,,,,,,*49
$GNZDA,,,,,,*56
$GNEBP,,,,,,M*13
$GNRMC,,,,,,,,,,,,*55
$GNGGA,,,,,,,,,,,,,,*48
$GPGSA,A,1,,,,,,,,,,,,,,,*1E
$GPGSV,1,1,0,,,,,,,,,,,,,,,,*49
$GNVTG,,,,,,,,,*60
$GNGST,,,,,,,,*49
$GNZDA,,,,,,*56
$GNEBP,,,,,,M*13
$GNRMC,,,,,,,,,,,,*55
$GNGGA,,,,,,,,,,,,,,*48
$GPGSA,A,1,,,,,,,,,,,,,,,*1E
$GPGSV,1,1,0,,,,,,,,,,,,,,,,*49
$GNVTG,,,,,,,,,*60
$GNGST,,,,,,,,*49
$GNZDA,,,,,,*56
$GNEBP,,,,,,M*13
$GNRMC,,,,,,,,,,,,*55
$GNGGA,,,,,,,,,,,,,,*48
$GPGSA,A,1,,,,,,,,,,,,,,,*1E
$GPGSV,1,1,0,,,,,,,,,,,,,,,,*49
$GNVTG,,,,,,,,,*60
$GNGST,,,,,,,,*49
$GNZDA,,,,,,*56
$GNEBP,,,,,,M*13
$GNRMC,,,,,,,,,,,,*55
$GNGGA,,,,,,,,,,,,,,*48
$GPGSA,A,1,,,,,,,,,,,,,,,*1E
$GPGSV,1,1,0,,,,,,,,,,,,,,,,*49
$GNVTG,,,,,,,,,*60
$GNGST,,,,,,,,*49
$GNZDA,,,,,,*56
$GNEBP,,,,,,M*13
$GNRMC,,,,,,,,,,,,*55
$GNGGA,,,,,,,,,,,,,,*48
$GPGSA,A,1,,,,,,,,,,,,,,,*1E
$GPGSV,1,1,0,,,,,,,,,,,,,,,,*49
$GNVTG,,,,,,,,,*60
$GNGST,,,,,,,,*49
$GNZDA,,,,,,*56
$GNEBP,,,,,,M*13
$GNRMC,,,,,,,,,,,,*55
$GNGGA,,,,,,,,,,,,,,*48
$GPGSA,A,1,,,,,,,,,,,,,,,*1E
$GPGSV,1,1,0,,,,,,,,,,,,,,,,*49
$GNVTG,,,,,,,,,*60
$GNGST,,,,,,,,*49
$GNZDA,,,,,,*56
$GNEBP,,,,,,M*13
$GNRMC,,,,,,,,,,,,*55
$GNGGA,,,,,,,,,,,,,,*48
$GPGSA,A,1,,,,,,,,,,,,,,,*1E
$GPGSV,1,1,0,,,,,,,,,,,,,,,,*49
$GNVTG,,,,,,,,,*60
$GNGST,,,,,,,,*49
$GNZDA,,,,,,*56
$GNEBP,,,,,,M*13
$GNRMC,,,,,,,,,,,,*55
$GNGGA,,,,,,,,,,,,,,*48
$GPGSA,A,1,,,,,,,,,,,,,,,*1E
$GPGSV,1,1,0,,,,,,,,,,,,,,,,*49
$GNVTG,,,,,,,,,*60
$GNGST,,,,,,,,*49
$GNZDA,,,,,,*56
$GNEBP,,,,,,M*13
$GNRMC,,,,,,,,,,,,*55
$GNGGA,,,,,,,,,,,,,,*48
$GPGSA,A,1,,,,,,,,,,,,,,,*1E
$GPGSV,1,1,0,,,,,,,,,,,,,,,,*49
$GNVTG,,,,,,,,,*60
$GNGST,,,,,,,,*49
$GNZDA,,,,,,*56
$GNEBP,,,,,,M*13
$GNRMC,,,,,,,,,,,,*55
$GNGGA,,,,,,,,,,,,,,*48
$GPGSA,A,1,,,,,,,,,,,,,,,*1E
$GPGSV,1,1,0,,,,,,,,,,,,,,,,*49
$GNVTG,,,,,,,,,*60
$GNGST,,,,,,,,*49
$GNZDA,,,,,,*56
$GNEBP,,,,,,M*13
$GNRMC,001751.20,A,4915.6181486,N,12315.3376223,W,0.39,,140725,,,A*48
$GNGGA,001751.20,4915.6181486,N,12315.3376223,W,1,06,3.6,80.289,M,-19.035,M,0.0,*5E
$GPGSA,A,3,01,02,03,28,,,,,,,,,10.5,3.6,9.9*09
$GLGSA,A,3,71,,,,,,,,,,,,10.5,3.6,9.9*19
$GAGSA,A,3,29,,,,,,,,,,,,10.5,3.6,9.9*19
$GBGSA,A,3,,,,,,,,,,,,,10.5,3.6,9.9*11
$GPGSV,1,1,04,01,51,233,40,02,30,204,36,03,59,302,36,28,53,070,39*76
$GLGSV,1,1,01,71,57,050,35,,,,,,,,,,,,*53
$GAGSV,1,1,01,29,48,251,38,,,,,,,,,,,,*53
$GNVTG,,T,,M,0.39,N,0.73,K,A*33
$GNGST,001751.20,0.000,,,,13.317,6.039,38.991*66
$GNZDA,001751.20,14,07,2025,00,00*7F
$GNEBP,,,,,,M*13
$GNRMC,001752.20,A,4915.6198104,N,12315.3390182,W,0.05,,140725,,,A*43
$GNGGA,001752.20,4915.6198104,N,12315.3390182,W,1,07,2.6,75.638,M,-19.035,M,0.0,*5E
$GPGSA,A,3,01,02,03,28,,,,,,,,,6.5,2.6,5.9*33
$GLGSA,A,3,71,,,,,,,,,,,,6.5,2.6,5.9*23
$GAGSA,A,3,07,29,,,,,,,,,,,6.5,2.6,5.9*24
$GBGSA,A,3,,,,,,,,,,,,,6.5,2.6,5.9*2B
$GPGSV,1,1,04,01,51,233,39,02,30,204,35,03,59,302,37,28,53,070,39*7A
$GLGSV,1,1,01,71,57,050,35,,,,,,,,,,,,*53
$GAGSV,1,1,02,07,73,056,36,29,48,251,38,,,,,,,,*65
$GNVTG,,T,,M,0.05,N,0.09,K,A*31
$GNGST,001752.20,0.061,,,,9.969,4.335,26.826*55
$GNZDA,001752.20,14,07,2025,00,00*7C
$GNEBP,,,,,,M*13
$GNRMC,001753.20,A,4915.6198177,N,12315.3391638,W,0.03,,140725,,,A*47
$GNGGA,001753.20,4915.6198177,N,12315.3391638,W,1,06,2.7,79.466,M,-19.035,M,0.0,*59
$GPGSA,A,3,01,03,28,,,,,,,,,,7.9,2.7,7.4*32
$GLGSA,A,3,71,,,,,,,,,,,,7.9,2.7,7.4*20
$GAGSA,A,3,07,29,,,,,,,,,,,7.9,2.7,7.4*27
$GBGSA,A,3,,,,,,,,,,,,,7.9,2.7,7.4*28
$GPGSV,1,1,03,01,51,233,39,03,60,302,37,28,53,070,38,,,,*47
$GLGSV,1,1,01,71,57,050,35,,,,,,,,,,,,*53
$GAGSV,1,1,02,07,73,056,35,29,48,251,38,,,,,,,,*66
$GNVTG,,T,,M,0.03,N,0.05,K,A*3B
$GNGST,001753.20,0.000,,,,10.289,4.622,32.062*60
$GNZDA,001753.20,14,07,2025,00,00*7D
$GNEBP,,,,,,M*13
$GNRMC,001754.20,A,4915.6197317,N,12315.3391409,W,0.18,,140725,,,A*41
$GNGGA,001754.20,4915.6197317,N,12315.3391409,W,1,05,4.2,80.637,M,-19.035,M,0.0,*55
$GPGSA,A,3,01,03,28,,,,,,,,,,20.6,4.2,20.2*38
$GLGSA,A,3,71,,,,,,,,,,,,20.6,4.2,20.2*2A
$GAGSA,A,3,29,,,,,,,,,,,,20.6,4.2,20.2*2A
$GBGSA,A,3,,,,,,,,,,,,,20.6,4.2,20.2*22
$GPGSV,1,1,03,01,51,233,39,03,60,302,37,28,53,070,38,,,,*47
$GLGSV,1,1,01,71,57,050,35,,,,,,,,,,,,*53
$GAGSV,1,1,01,29,48,251,37,,,,,,,,,,,,*5C
$GNVTG,,T,,M,0.18,N,0.34,K,A*33
$GNGST,001754.20,2.507,,,,10.289,4.622,32.064*61
$GNZDA,001754.20,14,07,2025,00,00*7A
$GNEBP,,,,,,M*13
$GNRMC,001755.20,A,4915.6197293,N,12315.3391381,W,0.04,,140725,,,A*47
$GNGGA,001755.20,4915.6197293,N,12315.3391381,W,1,05,4.2,80.701,M,-19.035,M,0.0,*5A
$GPGSA,A,3,01,03,28,,,,,,,,,,20.6,4.2,20.2*38
$GLGSA,A,3,71,,,,,,,,,,,,20.6,4.2,20.2*2A
$GAGSA,A,3,29,,,,,,,,,,,,20.6,4.2,20.2*2A
$GBGSA,A,3,,,,,,,,,,,,,20.6,4.2,20.2*22
$GPGSV,1,1,03,01,51,233,39,03,60,302,37,28,53,070,38,,,,*47
$GLGSV,1,1,01,71,57,050,36,,,,,,,,,,,,*50
$GAGSV,1,1,01,29,48,251,37,,,,,,,,,,,,*5C
$GNVTG,,T,,M,0.04,N,0.07,K,A*3E
$GNGST,001755.20,2.236,,,,10.289,4.622,32.064*65
$GNZDA,001755.20,14,07,2025,00,00*7B
$GNEBP,,,,,,M*13
$GNRMC,001756.20,A,4915.6197244,N,12315.3391309,W,0.03,,140725,,,A*49
$GNGGA,001756.20,4915.6197244,N,12315.3391309,W,1,05,4.2,80.665,M,-19.035,M,0.0,*50
$GPGSA,A,3,01,03,28,,,,,,,,,,20.7,4.2,20.2*39
$GLGSA,A,3,71,,,,,,,,,,,,20.7,4.2,20.2*2B
$GAGSA,A,3,29,,,,,,,,,,,,20.7,4.2,20.2*2B
$GBGSA,A,3,,,,,,,,,,,,,20.7,4.2,20.2*23
$GPGSV,1,1,03,01,51,233,39,03,60,302,37,28,53,070,38,,,,*47
$GLGSV,1,1,01,71,57,050,36,,,,,,,,,,,,*50
$GAGSV,1,1,01,29,48,251,37,,,,,,,,,,,,*5C
$GNVTG,,T,,M,0.03,N,0.06,K,A*38
$GNGST,001756.20,2.111,,,,10.289,4.622,32.064*60
$GNZDA,001756.20,14,07,2025,00,00*78
$GNEBP,,,,,,M*13
$GNRMC,001757.20,A,4915.6197279,N,12315.3391383,W,0.11,,140725,,,A*47
$GNGGA,001757.20,4915.6197279,N,12315.3391383,W,1,05,4.2,80.735,M,-19.035,M,0.0,*59
$GPGSA,A,3,01,03,28,,,,,,,,,,20.7,4.2,20.2*39
$GLGSA,A,3,71,,,,,,,,,,,,20.7,4.2,20.2*2B
$GAGSA,A,3,29,,,,,,,,,,,,20.7,4.2,20.2*2B
$GBGSA,A,3,,,,,,,,,,,,,20.7,4.2,20.2*23
$GPGSV,1,1,03,01,51,233,39,03,60,302,37,28,53,070,38,,,,*47
$GLGSV,1,1,01,71,57,050,36,,,,,,,,,,,,*50
$GAGSV,1,1,01,29,48,251,37,,,,,,,,,,,,*5C
$GNVTG,,T,,M,0.11,N,0.21,K,A*3E
$GNGST,001757.20,1.757,,,,10.289,4.622,32.064*66
$GNZDA,001757.20,14,07,2025,00,00*79
$GNEBP,,,,,,M*13
$GNRMC,001758.20,A,4915.6197104,N,12315.3391283,W,0.07,,140725,,,A*47
$GNGGA,001758.20,4915.6197104,N,12315.3391283,W,1,05,4.2,80.898,M,-19.035,M,0.0,*56
$GPGSA,A,3,01,03,28,,,,,,,,,,20.7,4.2,20.3*38
$GLGSA,A,3,71,,,,,,,,,,,,20.7,4.2,20.3*2A
$GAGSA,A,3,29,,,,,,,,,,,,20.7,4.2,20.3*2A
$GBGSA,A,3,,,,,,,,,,,,,20.7,4.2,20.3*22
$GPGSV,1,1,03,01,51,233,39,03,60,302,37,28,53,070,38,,,,*47
$GLGSV,1,1,01,71,57,050,36,,,,,,,,,,,,*50
$GAGSV,1,1,01,29,48,251,37,,,,,,,,,,,,*5C
$GNVTG,,T,,M,0.07,N,0.13,K,A*38
$GNGST,001758.20,1.640,,,,10.289,4.622,32.064*6E
$GNZDA,001758.20,14,07,2025,00,00*76
$GNEBP,,,,,,M*13
$GNRMC,001759.20,A,4915.6197111,N,12315.3391289,W,0.07,,140725,,,A*48
$GNGGA,001759.20,4915.6197111,N,12315.3391289,W,1,05,4.2,80.934,M,-19.035,M,0.0,*5E
$GPGSA,A,3,01,03,28,,,,,,,,,,20.7,4.2,20.3*38
$GLGSA,A,3,71,,,,,,,,,,,,20.7,4.2,20.3*2A
$GAGSA,A,3,29,,,,,,,,,,,,20.7,4.2,20.3*2A
$GBGSA,A,3,,,,,,,,,,,,,20.7,4.2,20.3*22
$GPGSV,1,1,03,01,51,233,39,03,60,302,37,28,53,070,39,,,,*46
$GLGSV,1,1,01,71,57,050,36,,,,,,,,,,,,*50
$GAGSV,1,1,01,29,48,251,37,,,,,,,,,,,,*5C
$GNVTG,,T,,M,0.07,N,0.13,K,A*38
$GNGST,001759.20,1.898,,,,10.289,4.622,32.064*64
$GNZDA,001759.20,14,07,2025,00,00*77
$GNEBP,,,,,,M*13
$GNRMC,001800.20,A,4915.6197103,N,12315.3391282,W,0.16,,140725,,,A*43
$GNGGA,001800.20,4915.6197103,N,12315.3391282,W,1,05,4.2,80.922,M,-19.035,M,0.0,*52
$GPGSA,A,3,01,03,28,,,,,,,,,,20.7,4.2,20.3*38
$GLGSA,A,3,71,,,,,,,,,,,,20.7,4.2,20.3*2A
$GAGSA,A,3,29,,,,,,,,,,,,20.7,4.2,20.3*2A
$GBGSA,A,3,,,,,,,,,,,,,20.7,4.2,20.3*22
$GPGSV,1,1,03,01,51,233,40,03,60,302,37,28,53,070,38,,,,*49
$GLGSV,1,1,01,71,57,050,36,,,,,,,,,,,,*50
$GAGSV,1,1,01,29,48,251,37,,,,,,,,,,,,*5C
$GNVTG,,T,,M,0.16,N,0.30,K,A*39
$GNGST,001800.20,1.967,,,,10.289,4.622,32.064*66
$GNZDA,001800.20,14,07,2025,00,00*74
$GNEBP,,,,,,M*13
$GNRMC,001801.20,A,4915.6197020,N,12315.3391237,W,0.03,,140725,,,A*48
$GNGGA,001801.20,4915.6197020,N,12315.3391237,W,1,05,4.2,81.015,M,-19.035,M,0.0,*51
$GPGSA,A,3,01,03,28,,,,,,,,,,20.7,4.2,20.3*38
$GLGSA,A,3,71,,,,,,,,,,,,20.7,4.2,20.3*2A
$GAGSA,A,3,29,,,,,,,,,,,,20.7,4.2,20.3*2A
$GBGSA,A,3,,,,,,,,,,,,,20.7,4.2,20.3*22
$GPGSV,1,1,03,01,51,233,40,03,60,302,37,28,53,070,38,,,,*49
$GLGSV,1,1,01,71,57,050,36,,,,,,,,,,,,*50
$GAGSV,1,1,01,29,48,251,38,,,,,,,,,,,,*53
$GNVTG,,T,,M,0.03,N,0.05,K,A*3B
$GNGST,001801.20,2.161,,,,10.289,4.622,32.064*6A
$GNZDA,001801.20,14,07,2025,00,00*75
$GNEBP,,,,,,M*13
$GNRMC,001802.20,A,4915.6196983,N,12315.3391273,W,0.02,,140725,,,A*4B
$GNGGA,001802.20,4915.6196983,N,12315.3391273,W,1,05,4.2,81.072,M,-19.035,M,0.0,*52
$GPGSA,A,3,01,03,28,,,,,,,,,,20.7,4.2,20.3*38
$GLGSA,A,3,71,,,,,,,,,,,,20.7,4.2,20.3*2A
$GAGSA,A,3,29,,,,,,,,,,,,20.7,4.2,20.3*2A
$GBGSA,A,3,,,,,,,,,,,,,20.7,4.2,20.3*22
$GPGSV,1,1,03,01,51,233,40,03,60,302,37,28,53,070,39,,,,*48
$GLGSV,1,1,01,71,57,050,36,,,,,,,,,,,,*50
$GAGSV,1,1,01,29,48,251,38,,,,,,,,,,,,*53
$GNVTG,,T,,M,0.02,N,0.05,K,A*3A
$GNGST,001802.20,2.251,,,,10.289,4.622,32.064*69
$GNZDA,001802.20,14,07,2025,00,00*76
$GNEBP,,,,,,M*13
$GNRMC,001803.20,A,4915.6196906,N,12315.3391275,W,0.05,,140725,,,A*46
$GNGGA,001803.20,4915.6196906,N,12315.3391275,W,1,05,4.2,81.154,M,-19.035,M,0.0,*5D
$GPGSA,A,3,01,03,28,,,,,,,,,,20.7,4.2,20.3*38
$GLGSA,A,3,71,,,,,,,,,,,,20.7,4.2,20.3*2A
$GAGSA,A,3,29,,,,,,,,,,,,20.7,4.2,20.3*2A
$GBGSA,A,3,,,,,,,,,,,,,20.7,4.2,20.3*22
$GPGSV,1,1,03,01,51,233,40,03,60,302,37,28,53,070,39,,,,*48
$GLGSV,1,1,01,71,57,050,35,,,,,,,,,,,,*53
$GAGSV,1,1,01,29,48,251,38,,,,,,,,,,,,*53
$GNVTG,,T,,M,0.05,N,0.10,K,A*39
$GNGST,001803.20,2.288,,,,10.289,4.622,32.064*6C
$GNZDA,001803.20,14,07,2025,00,00*77
$GNEBP,,,,,,M*13
$GNRMC,001804.20,A,4915.6196902,N,12315.3391314,W,0.02,,140725,,,A*44
$GNGGA,001804.20,4915.6196902,N,12315.3391314,W,1,05,4.2,81.116,M,-19.035,M,0.0,*5E
$GPGSA,A,3,01,03,28,,,,,,,,,,20.8,4.2,20.3*37
$GLGSA,A,3,71,,,,,,,,,,,,20.8,4.2,20.3*25
$GAGSA,A,3,29,,,,,,,,,,,,20.8,4.2,20.3*25
$GBGSA,A,3,,,,,,,,,,,,,20.8,4.2,20.3*2D
$GPGSV,1,1,03,01,51,233,40,03,60,302,38,28,53,070,39,,,,*47
$GLGSV,1,1,01,71,57,050,35,,,,,,,,,,,,*53
$GAGSV,1,1,01,29,48,251,38,,,,,,,,,,,,*53
$GNVTG,,T,,M,0.02,N,0.03,K,A*3C
$GNGST,001804.20,2.381,,,,10.289,4.622,32.064*63
$GNZDA,001804.20,14,07,2025,00,00*70
$GNEBP,,,,,,M*13
$GNRMC,001805.20,A,4915.6196854,N,12315.3391319,W,0.12,,140725,,,A*4B
$GNGGA,001805.20,4915.6196854,N,12315.3391319,W,1,05,4.2,81.167,M,-19.035,M,0.0,*56
$GPGSA,A,3,01,03,28,,,,,,,,,,20.8,4.2,20.3*37
$GLGSA,A,3,71,,,,,,,,,,,,20.8,4.2,20.3*25
$GAGSA,A,3,29,,,,,,,,,,,,20.8,4.2,20.3*25
$GBGSA,A,3,,,,,,,,,,,,,20.8,4.2,20.3*2D
$GPGSV,1,1,03,01,51,233,40,03,60,302,38,28,53,070,38,,,,*46
$GLGSV,1,1,01,71,57,050,35,,,,,,,,,,,,*53
$GAGSV,1,1,01,29,48,251,38,,,,,,,,,,,,*53
$GNVTG,,T,,M,0.12,N,0.23,K,A*3F
$GNGST,001805.20,2.551,,,,10.289,4.622,32.064*69
$GNZDA,001805.20,14,07,2025,00,00*71
$GNEBP,,,,,,M*13
$GNRMC,001806.20,A,4915.6184488,N,12315.3390243,W,0.02,,140725,,,A*48
$GNGGA,001806.20,4915.6184488,N,12315.3390243,W,1,06,2.7,77.132,M,-19.035,M,0.0,*5D
$GPGSA,A,3,01,03,28,,,,,,,,,,7.9,2.7,7.4*32
$GLGSA,A,3,71,,,,,,,,,,,,7.9,2.7,7.4*20
$GAGSA,A,3,07,29,,,,,,,,,,,7.9,2.7,7.4*27
$GBGSA,A,3,,,,,,,,,,,,,7.9,2.7,7.4*28
$GPGSV,1,1,03,01,51,233,40,03,60,302,38,28,53,070,38,,,,*46
$GLGSV,1,1,01,71,57,050,35,,,,,,,,,,,,*53
$GAGSV,1,1,02,07,73,056,35,29,48,251,38,,,,,,,,*66
$GNVTG,,T,,M,0.02,N,0.04,K,A*3B
$GNGST,001806.20,0.000,,,,10.319,4.633,32.137*66
$GNZDA,001806.20,14,07,2025,00,00*72
$GNEBP,,,,,,M*13
$GNRMC,001807.20,A,4915.6185622,N,12315.3389242,W,0.05,,140725,,,A*44
$GNGGA,001807.20,4915.6185622,N,12315.3389242,W,1,06,2.7,75.739,M,-19.035,M,0.0,*59
$GPGSA,A,3,01,03,28,,,,,,,,,,7.9,2.7,7.4*32
$GLGSA,A,3,71,,,,,,,,,,,,7.9,2.7,7.4*20
$GAGSA,A,3,07,29,,,,,,,,,,,7.9,2.7,7.4*27
$GBGSA,A,3,,,,,,,,,,,,,7.9,2.7,7.4*28
$GPGSV,1,1,03,01,51,233,40,03,60,302,38,28,53,070,38,,,,*46
$GLGSV,1,1,01,71,57,050,35,,,,,,,,,,,,*53
$GAGSV,1,1,02,07,73,056,35,29,48,251,38,,,,,,,,*66
$GNVTG,,T,,M,0.05,N,0.09,K,A*31
$GNGST,001807.20,0.000,,,,10.321,4.634,32.142*69
$GNZDA,001807.20,14,07,2025,00,00*73
$GNEBP,,,,,,M*13
$GNRMC,001808.20,A,4915.6186080,N,12315.3388137,W,0.01,,140725,,,A*42
$GNGGA,001808.20,4915.6186080,N,12315.3388137,W,1,06,2.7,75.258,M,-19.035,M,0.0,*59
$GPGSA,A,3,01,03,28,,,,,,,,,,7.9,2.7,7.4*32
$GLGSA,A,3,71,,,,,,,,,,,,7.9,2.7,7.4*20
$GAGSA,A,3,07,29,,,,,,,,,,,7.9,2.7,7.4*27
$GBGSA,A,3,,,,,,,,,,,,,7.9,2.7,7.4*28
$GPGSV,1,1,03,01,51,233,40,03,60,302,38,28,52,070,38,,,,*47
$GLGSV,1,1,01,71,57,050,35,,,,,,,,,,,,*53
$GAGSV,1,1,02,07,73,056,35,29,48,251,38,,,,,,,,*66
$GNVTG,,T,,M,0.01,N,0.02,K,A*3E
$GNGST,001808.20,0.000,,,,10.324,4.635,32.148*68
$GNZDA,001808.20,14,07,2025,00,00*7C
$GNEBP,,,,,,M*13
$GNRMC,001809.20,A,4915.6186382,N,12315.3387930,W,0.08,,140725,,,A*4B
$GNGGA,001809.20,4915.6186382,N,12315.3387930,W,1,06,2.7,74.943,M,-19.035,M,0.0,*59
$GPGSA,A,3,01,03,28,,,,,,,,,,7.9,2.7,7.4*32
$GLGSA,A,3,71,,,,,,,,,,,,7.9,2.7,7.4*20
$GAGSA,A,3,07,29,,,,,,,,,,,7.9,2.7,7.4*27
$GBGSA,A,3,,,,,,,,,,,,,7.9,2.7,7.4*28
$GPGSV,1,1,03,01,51,233,40,03,60,302,37,28,52,070,39,,,,*49
$GLGSV,1,1,01,71,57,050,36,,,,,,,,,,,,*50
$GAGSV,1,1,02,07,73,056,35,29,48,251,38,,,,,,,,*66
$GNVTG,,T,,M,0.08,N,0.14,K,A*30
$GNGST,001809.20,0.000,,,,10.326,4.636,32.153*62
$GNZDA,001809.20,14,07,2025,00,00*7D
$GNEBP,,,,,,M*13
$GNRMC,001810.20,A,4915.6187036,N,12315.3388256,W,0.01,,140725,,,A*43
$GNGGA,001810.20,4915.6187036,N,12315.3388256,W,1,06,2.7,74.966,M,-19.035,M,0.0,*5F
$GPGSA,A,3,01,03,28,,,,,,,,,,7.9,2.7,7.4*32
$GLGSA,A,3,71,,,,,,,,,,,,7.9,2.7,7.4*20
$GAGSA,A,3,07,29,,,,,,,,,,,7.9,2.7,7.4*27
$GBGSA,A,3,,,,,,,,,,,,,7.9,2.7,7.4*28
$GPGSV,1,1,03,01,51,233,40,03,60,302,37,28,52,070,39,,,,*49
$GLGSV,1,1,01,71,57,050,36,,,,,,,,,,,,*50
$GAGSV,1,1,02,07,73,056,35,29,48,251,38,,,,,,,,*66
$GNVTG,,T,,M,0.01,N,0.03,K,A*3F
$GNGST,001810.20,0.000,,,,10.328,4.637,32.159*6F
$GNZDA,001810.20,14,07,2025,00,00*75
$GNEBP,,,,,,M*13
$GNRMC,001811.20,A,4915.6187092,N,12315.3388376,W,0.13,,140725,,,A*4C
$GNGGA,001811.20,4915.6187092,N,12315.3388376,W,1,05,4.2,75.091,M,-19.035,M,0.0,*53
$GPGSA,A,3,01,03,28,,,,,,,,,,20.8,4.2,20.4*30
$GLGSA,A,3,71,,,,,,,,,,,,20.8,4.2,20.4*22
$GAGSA,A,3,29,,,,,,,,,,,,20.8,4.2,20.4*22
$GBGSA,A,3,,,,,,,,,,,,,20.8,4.2,20.4*2A
$GPGSV,1,1,03,01,51,233,40,03,60,302,37,28,52,070,39,,,,*49
$GLGSV,1,1,01,71,57,050,35,,,,,,,,,,,,*53
$GAGSV,1,1,01,29,48,251,38,,,,,,,,,,,,*53
$GNVTG,,T,,M,0.13,N,0.24,K,A*39
$GNGST,001811.20,1.834,,,,10.329,4.637,32.160*6B
$GNZDA,001811.20,14,07,2025,00,00*74
$GNEBP,,,,,,M*13
$GNRMC,001812.20,A,4915.6187028,N,12315.3388420,W,0.12,,140725,,,A*4B
$GNGGA,001812.20,4915.6187028,N,12315.3388420,W,1,05,4.2,75.170,M,-19.035,M,0.0,*5B
$GPGSA,A,3,01,03,28,,,,,,,,,,20.9,4.2,20.4*31
$GLGSA,A,3,71,,,,,,,,,,,,20.9,4.2,20.4*23
$GAGSA,A,3,29,,,,,,,,,,,,20.9,4.2,20.4*23
$GBGSA,A,3,,,,,,,,,,,,,20.9,4.2,20.4*2B
$GPGSV,1,1,03,01,51,233,40,03,60,302,37,28,52,070,38,,,,*48
$GLGSV,1,1,01,71,57,050,35,,,,,,,,,,,,*53
$GAGSV,1,1,01,29,48,251,38,,,,,,,,,,,,*53
$GNVTG,,T,,M,0.12,N,0.22,K,A*3E
$GNGST,001812.20,2.200,,,,10.329,4.637,32.160*66
$GNZDA,001812.20,14,07,2025,00,00*77
$GNEBP,,,,,,M*13
$GNRMC,001813.20,A,4915.6187099,N,12315.3388435,W,0.06,,140725,,,A*41
$GNGGA,001813.20,4915.6187099,N,12315.3388435,W,1,05,4.3,75.070,M,-19.035,M,0.0,*54
$GPGSA,A,3,01,03,28,,,,,,,,,,20.9,4.3,20.4*30
$GLGSA,A,3,71,,,,,,,,,,,,20.9,4.3,20.4*22
$GAGSA,A,3,29,,,,,,,,,,,,20.9,4.3,20.4*22
$GBGSA,A,3,,,,,,,,,,,,,20.9,4.3,20.4*2A
$GPGSV,1,1,03,01,51,233,40,03,60,302,37,28,52,070,38,,,,*48
$GLGSV,1,1,01,71,57,050,35,,,,,,,,,,,,*53
$GAGSV,1,1,01,29,48,251,38,,,,,,,,,,,,*53
$GNVTG,,T,,M,0.06,N,0.11,K,A*3B
$GNGST,001813.20,2.389,,,,10.329,4.637,32.160*67
$GNZDA,001813.20,14,07,2025,00,00*76
$GNEBP,,,,,,M*13
$GNRMC,001814.20,A,4915.6187066,N,12315.3388483,W,0.15,,140725,,,A*49
$GNGGA,001814.20,4915.6187066,N,12315.3388483,W,1,05,4.3,75.159,M,-19.035,M,0.0,*54
$GPGSA,A,3,01,03,28,,,,,,,,,,20.9,4.3,20.4*30
$GLGSA,A,3,71,,,,,,,,,,,,20.9,4.3,20.4*22
$GAGSA,A,3,29,,,,,,,,,,,,20.9,4.3,20.4*22
$GBGSA,A,3,,,,,,,,,,,,,20.9,4.3,20.4*2A
$GPGSV,1,1,03,01,51,233,40,03,60,302,36,28,52,070,38,,,,*49
$GLGSV,1,1,01,71,57,050,35,,,,,,,,,,,,*53
$GAGSV,1,1,01,29,48,251,38,,,,,,,,,,,,*53
$GNVTG,,T,,M,0.15,N,0.28,K,A*33
$GNGST,001814.20,2.681,,,,10.329,4.637,32.160*6D
$GNZDA,001814.20,14,07,2025,00,00*71
$GNEBP,,,,,,M*13
$GNRMC,001815.20,A,4915.6187007,N,12315.3388459,W,0.10,,140725,,,A*4D
$GNGGA,001815.20,4915.6187007,N,12315.3388459,W,1,05,4.3,75.198,M,-19.035,M,0.0,*58
$GPGSA,A,3,01,03,28,,,,,,,,,,20.9,4.3,20.5*31
$GLGSA,A,3,71,,,,,,,,,,,,20.9,4.3,20.5*23
$GAGSA,A,3,29,,,,,,,,,,,,20.9,4.3,20.5*23
$GBGSA,A,3,,,,,,,,,,,,,20.9,4.3,20.5*2B
$GPGSV,1,1,03,01,51,233,40,03,60,302,37,28,52,070,38,,,,*48
$GLGSV,1,1,01,71,57,050,35,,,,,,,,,,,,*53
$GAGSV,1,1,01,29,48,251,38,,,,,,,,,,,,*53
$GNVTG,,T,,M,0.10,N,0.18,K,A*35
$GNGST,001815.20,2.812,,,,10.329,4.637,32.160*68
$GNZDA,001815.20,14,07,2025,00,00*70
$GNEBP,,,,,,M*13
$GNRMC,001816.20,A,4915.6187490,N,12315.3388510,W,0.18,,140725,,,A*40
$GNGGA,001816.20,4915.6187490,N,12315.3388510,W,1,05,4.3,75.745,M,-19.035,M,0.0,*5B
$GPGSA,A,3,01,03,28,,,,,,,,,,20.9,4.3,20.5*31
$GLGSA,A,3,71,,,,,,,,,,,,20.9,4.3,20.5*23
$GAGSA,A,3,29,,,,,,,,,,,,20.9,4.3,20.5*23
$GBGSA,A,3,,,,,,,,,,,,,20.9,4.3,20.5*2B
$GPGSV,1,1,03,01,51,233,40,03,60,302,36,28,52,070,38,,,,*49
$GLGSV,1,1,01,71,57,050,35,,,,,,,,,,,,*53
$GAGSV,1,1,01,29,48,251,38,,,,,,,,,,,,*53
$GNVTG,,T,,M,0.18,N,0.34,K,A*33
$GNGST,001816.20,2.906,,,,10.341,4.641,32.189*67
$GNZDA,001816.20,14,07,2025,00,00*73
$GNEBP,,,,,,M*13
$GNRMC,001817.20,A,4915.6187842,N,12315.3388523,W,0.18,,140725,,,A*42
$GNGGA,001817.20,4915.6187842,N,12315.3388523,W,1,05,4.3,75.888,M,-19.035,M,0.0,*57
$GPGSA,A,3,01,03,28,,,,,,,,,,20.9,4.3,20.5*31
$GLGSA,A,3,71,,,,,,,,,,,,20.9,4.3,20.5*23
$GAGSA,A,3,29,,,,,,,,,,,,20.9,4.3,20.5*23
$GBGSA,A,3,,,,,,,,,,,,,20.9,4.3,20.5*2B
$GPGSV,1,1,03,01,51,233,40,03,60,302,36,28,52,070,38,,,,*49
$GLGSV,1,1,01,71,57,050,36,,,,,,,,,,,,*50
$GAGSV,1,1,01,29,48,251,38,,,,,,,,,,,,*53
$GNVTG,,T,,M,0.18,N,0.33,K,A*34
$GNGST,001817.20,2.863,,,,10.345,4.643,32.197*6D
$GNZDA,001817.20,14,07,2025,00,00*72
$GNEBP,,,,,,M*13
$GNRMC,001818.20,A,4915.6188400,N,12315.3388610,W,0.07,,140725,,,A*45
$GNGGA,001818.20,4915.6188400,N,12315.3388610,W,1,06,2.7,75.849,M,-19.035,M,0.0,*52
$GPGSA,A,3,01,03,28,,,,,,,,,,7.9,2.7,7.4*32
$GLGSA,A,3,71,,,,,,,,,,,,7.9,2.7,7.4*20
$GAGSA,A,3,07,29,,,,,,,,,,,7.9,2.7,7.4*27
$GBGSA,A,3,,,,,,,,,,,,,7.9,2.7,7.4*28
$GPGSV,1,1,03,01,51,233,40,03,60,302,36,28,52,070,38,,,,*49
$GLGSV,1,1,01,71,57,050,36,,,,,,,,,,,,*50
$GAGSV,1,1,02,07,73,056,35,29,48,251,38,,,,,,,,*66
$GNVTG,,T,,M,0.07,N,0.14,K,A*3F
$GNGST,001818.20,0.000,,,,10.347,4.644,32.203*66
$GNZDA,001818.20,14,07,2025,00,00*7D
$GNEBP,,,,,,M*13
$GNRMC,001819.20,A,4915.6188818,N,12315.3388673,W,0.02,,140725,,,A*41
$GNGGA,001819.20,4915.6188818,N,12315.3388673,W,1,05,4.3,75.857,M,-19.035,M,0.0,*5D
$GPGSA,A,3,01,03,28,,,,,,,,,,20.9,4.3,20.5*31
$GLGSA,A,3,71,,,,,,,,,,,,20.9,4.3,20.5*23
$GAGSA,A,3,29,,,,,,,,,,,,20.9,4.3,20.5*23
$GBGSA,A,3,,,,,,,,,,,,,20.9,4.3,20.5*2B
$GPGSV,1,1,03,01,51,233,40,03,60,302,36,28,52,070,38,,,,*49
$GLGSV,1,1,01,71,57,050,36,,,,,,,,,,,,*50
$GAGSV,1,1,01,29,48,251,38,,,,,,,,,,,,*53
$GNVTG,,T,,M,0.02,N,0.04,K,A*3B
$GNGST,001819.20,2.143,,,,10.348,4.644,32.205*6A
$GNZDA,001819.20,14,07,2025,00,00*7C
$GNEBP,,,,,,M*13
$GNRMC,001820.20,A,4915.6189333,N,12315.3388716,W,0.13,,140725,,,A*4A
$GNGGA,001820.20,4915.6189333,N,12315.3388716,W,1,06,2.7,75.890,M,-19.035,M,0.0,*5C
$GPGSA,A,3,01,03,28,,,,,,,,,,7.9,2.7,7.4*32
$GLGSA,A,3,71,,,,,,,,,,,,7.9,2.7,7.4*20
$GAGSA,A,3,07,29,,,,,,,,,,,7.9,2.7,7.4*27
$GBGSA,A,3,,,,,,,,,,,,,7.9,2.7,7.4*28
$GPGSV,1,1,03,01,51,232,40,03,60,302,36,28,52,070,38,,,,*48
$GLGSV,1,1,01,71,57,050,36,,,,,,,,,,,,*50
$GAGSV,1,1,02,07,73,056,35,29,48,251,38,,,,,,,,*66
$GNVTG,,T,,M,0.13,N,0.24,K,A*39
$GNGST,001820.20,0.000,,,,10.352,4.646,32.214*6D
$GNZDA,001820.20,14,07,2025,00,00*76
$GNEBP,,,,,,M*13
$GNRMC,001821.20,A,4915.6189358,N,12315.3388732,W,0.04,,140725,,,A*46
$GNGGA,001821.20,4915.6189358,N,12315.3388732,W,1,05,4.3,75.885,M,-19.035,M,0.0,*53
$GPGSA,A,3,01,03,28,,,,,,,,,,21.0,4.3,20.5*39
$GLGSA,A,3,71,,,,,,,,,,,,21.0,4.3,20.5*2B
$GAGSA,A,3,29,,,,,,,,,,,,21.0,4.3,20.5*2B
$GBGSA,A,3,,,,,,,,,,,,,21.0,4.3,20.5*23
$GPGSV,1,1,03,01,51,232,40,03,60,302,36,28,52,070,38,,,,*48
$GLGSV,1,1,01,71,57,050,36,,,,,,,,,,,,*50
$GAGSV,1,1,01,29,48,251,38,,,,,,,,,,,,*53
$GNVTG,,T,,M,0.04,N,0.08,K,A*31
$GNGST,001821.20,2.055,,,,10.352,4.646,32.214*6E
$GNZDA,001821.20,14,07,2025,00,00*77
$GNEBP,,,,,,M*13
$GNRMC,001822.20,A,4915.6189326,N,12315.3388686,W,0.04,,140725,,,A*42
$GNGGA,001822.20,4915.6189326,N,12315.3388686,W,1,05,4.3,75.952,M,-19.035,M,0.0,*5C
$GPGSA,A,3,01,03,28,,,,,,,,,,21.0,4.3,20.5*39
$GLGSA,A,3,71,,,,,,,,,,,,21.0,4.3,20.5*2B
$GAGSA,A,3,29,,,,,,,,,,,,21.0,4.3,20.5*2B
$GBGSA,A,3,,,,,,,,,,,,,21.0,4.3,20.5*23
$GPGSV,1,1,03,01,51,232,40,03,60,302,36,28,52,070,37,,,,*47
$GLGSV,1,1,01,71,57,050,36,,,,,,,,,,,,*50
$GAGSV,1,1,01,29,48,251,38,,,,,,,,,,,,*53
$GNVTG,,T,,M,0.04,N,0.07,K,A*3E
$GNGST,001822.20,2.029,,,,10.352,4.646,32.214*66
$GNZDA,001822.20,14,07,2025,00,00*74
$GNEBP,,,,,,M*13
$GNRMC,001823.20,A,4915.6189945,N,12315.3388686,W,0.01,,140725,,,A*49
$GNGGA,001823.20,4915.6189945,N,12315.3388686,W,1,05,4.3,75.919,M,-19.035,M,0.0,*5D
$GPGSA,A,3,01,03,28,,,,,,,,,,21.0,4.3,20.6*3A
$GLGSA,A,3,71,,,,,,,,,,,,21.0,4.3,20.6*28
$GAGSA,A,3,29,,,,,,,,,,,,21.0,4.3,20.6*28
$GBGSA,A,3,,,,,,,,,,,,,21.0,4.3,20.6*20
$GPGSV,1,1,03,01,51,232,40,03,60,302,36,28,52,070,38,,,,*48
$GLGSV,1,1,01,71,57,050,36,,,,,,,,,,,,*50
$GAGSV,1,1,01,29,48,251,38,,,,,,,,,,,,*53
$GNVTG,,T,,M,0.01,N,0.02,K,A*3E
$GNGST,001823.20,1.407,,,,10.359,4.648,32.230*6F
$GNZDA,001823.20,14,07,2025,00,00*75
$GNEBP,,,,,,M*13
$GNRMC,001824.20,A,4915.6192975,N,12315.3388429,W,0.11,,140725,,,A*41
$GNGGA,001824.20,4915.6192975,N,12315.3388429,W,1,06,2.7,75.582,M,-19.035,M,0.0,*5B
$GPGSA,A,3,01,03,28,,,,,,,,,,7.9,2.7,7.4*32
$GLGSA,A,3,71,,,,,,,,,,,,7.9,2.7,7.4*20
$GAGSA,A,3,07,29,,,,,,,,,,,7.9,2.7,7.4*27
$GBGSA,A,3,,,,,,,,,,,,,7.9,2.7,7.4*28
$GPGSV,1,1,03,01,51,232,40,03,60,302,36,28,52,070,37,,,,*47
$GLGSV,1,1,01,71,57,050,35,,,,,,,,,,,,*53
$GAGSV,1,1,02,07,73,056,35,29,48,251,38,,,,,,,,*66
$GNVTG,,T,,M,0.11,N,0.20,K,A*3F
$GNGST,001824.20,0.000,,,,10.362,4.649,32.236*65
$GNZDA,001824.20,14,07,2025,00,00*72
$GNEBP,,,,,,M*13
$GNRMC,001825.20,A,4915.6193412,N,12315.3388310,W,0.02,,140725,,,A*42
$GNGGA,001825.20,4915.6193412,N,12315.3388310,W,1,05,4.3,75.569,M,-19.035,M,0.0,*5E
$GPGSA,A,3,01,03,28,,,,,,,,,,21.0,4.3,20.6*3A
$GLGSA,A,3,71,,,,,,,,,,,,21.0,4.3,20.6*28
$GAGSA,A,3,29,,,,,,,,,,,,21.0,4.3,20.6*28
$GBGSA,A,3,,,,,,,,,,,,,21.0,4.3,20.6*20
$GPGSV,1,1,03,01,51,232,39,03,60,302,36,28,52,070,37,,,,*49
$GLGSV,1,1,01,71,57,050,35,,,,,,,,,,,,*53
$GAGSV,1,1,01,29,48,251,38,,,,,,,,,,,,*53
$GNVTG,,T,,M,0.02,N,0.04,K,A*3B
$GNGST,001825.20,1.530,,,,10.363,4.650,32.240*6B
$GNZDA,001825.20,14,07,2025,00,00*73
$GNEBP,,,,,,M*13
$GNRMC,001826.20,A,4915.6193349,N,12315.3388259,W,0.21,,140725,,,A*45
$GNGGA,001826.20,4915.6193349,N,12315.3388259,W,1,05,4.3,75.603,M,-19.035,M,0.0,*57
$GPGSA,A,3,01,03,28,,,,,,,,,,21.0,4.3,20.6*3A
$GLGSA,A,3,71,,,,,,,,,,,,21.0,4.3,20.6*28
$GAGSA,A,3,29,,,,,,,,,,,,21.0,4.3,20.6*28
$GBGSA,A,3,,,,,,,,,,,,,21.0,4.3,20.6*20
$GPGSV,1,1,03,01,51,232,39,03,60,302,36,28,52,070,37,,,,*49
$GLGSV,1,1,01,71,57,050,36,,,,,,,,,,,,*50
$GAGSV,1,1,01,29,48,251,38,,,,,,,,,,,,*53
$GNVTG,,T,,M,0.21,N,0.38,K,A*35
$GNGST,001826.20,1.509,,,,10.363,4.650,32.240*62
$GNZDA,001826.20,14,07,2025,00,00*70
$GNEBP,,,,,,M*13
$GNRMC,001827.20,A,4915.6193419,N,12315.3388307,W,0.03,,140725,,,A*4C
$GNGGA,001827.20,4915.6193419,N,12315.3388307,W,1,05,4.3,75.606,M,-19.035,M,0.0,*5B
$GPGSA,A,3,01,03,28,,,,,,,,,,21.0,4.3,20.6*3A
$GLGSA,A,3,71,,,,,,,,,,,,21.0,4.3,20.6*28
$GAGSA,A,3,29,,,,,,,,,,,,21.0,4.3,20.6*28
$GBGSA,A,3,,,,,,,,,,,,,21.0,4.3,20.6*20
$GPGSV,1,1,03,01,51,232,39,03,60,302,36,28,52,070,37,,,,*49
$GLGSV,1,1,01,71,57,050,36,,,,,,,,,,,,*50
$GAGSV,1,1,01,29,48,251,38,,,,,,,,,,,,*53
$GNVTG,,T,,M,0.03,N,0.05,K,A*3B
$GNGST,001827.20,1.945,,,,10.363,4.650,32.240*67
$GNZDA,001827.20,14,07,2025,00,00*71
$GNEBP,,,,,,M*13
$GNRMC,001828.20,A,4915.6193356,N,12315.3388342,W,0.10,,140725,,,A*4C
$GNGGA,001828.20,4915.6193356,N,12315.3388342,W,1,05,4.3,75.653,M,-19.035,M,0.0,*59
$GPGSA,A,3,01,03,28,,,,,,,,,,21.1,4.3,20.6*3B
$GLGSA,A,3,71,,,,,,,,,,,,21.1,4.3,20.6*29
$GAGSA,A,3,29,,,,,,,,,,,,21.1,4.3,20.6*29
$GBGSA,A,3,,,,,,,,,,,,,21.1,4.3,20.6*21
$GPGSV,1,1,03,01,51,232,39,03,60,302,36,28,52,070,37,,,,*49
$GLGSV,1,1,01,71,57,050,35,,,,,,,,,,,,*53
$GAGSV,1,1,01,29,48,251,38,,,,,,,,,,,,*53
$GNVTG,,T,,M,0.10,N,0.18,K,A*35
$GNGST,001828.20,1.855,,,,10.363,4.650,32.240*68
$GNZDA,001828.20,14,07,2025,00,00*7E
$GNEBP,,,,,,M*13
$GNRMC,001829.20,A,4915.6193276,N,12315.3388299,W,0.06,,140725,,,A*4E
$GNGGA,001829.20,4915.6193276,N,12315.3388299,W,1,05,4.3,75.720,M,-19.035,M,0.0,*59
$GPGSA,A,3,01,03,28,,,,,,,,,,21.1,4.3,20.6*3B
$GLGSA,A,3,71,,,,,,,,,,,,21.1,4.3,20.6*29
$GAGSA,A,3,29,,,,,,,,,,,,21.1,4.3,20.6*29
$GBGSA,A,3,,,,,,,,,,,,,21.1,4.3,20.6*21
$GPGSV,1,1,03,01,51,232,39,03,60,302,36,28,52,070,37,,,,*49
$GLGSV,1,1,01,71,57,050,35,,,,,,,,,,,,*53
$GAGSV,1,1,01,29,48,251,38,,,,,,,,,,,,*53
$GNVTG,,T,,M,0.06,N,0.11,K,A*3B
$GNGST,001829.20,1.992,,,,10.363,4.650,32.240*63
$GNZDA,001829.20,14,07,2025,00,00*7F
$GNEBP,,,,,,M*13
$GNRMC,001830.20,A,4915.6193290,N,12315.3388334,W,0.05,,140725,,,A*4B
$GNGGA,001830.20,4915.6193290,N,12315.3388334,W,1,05,4.3,75.696,M,-19.035,M,0.0,*53
$GPGSA,A,3,01,03,28,,,,,,,,,,21.1,4.3,20.6*3B
$GLGSA,A,3,71,,,,,,,,,,,,21.1,4.3,20.6*29
$GAGSA,A,3,29,,,,,,,,,,,,21.1,4.3,20.6*29
$GBGSA,A,3,,,,,,,,,,,,,21.1,4.3,20.6*21
$GPGSV,1,1,03,01,51,232,39,03,60,302,36,28,52,070,37,,,,*49
$GLGSV,1,1,01,71,57,050,35,,,,,,,,,,,,*53
$GAGSV,1,1,01,29,48,251,38,,,,,,,,,,,,*53
$GNVTG,,T,,M,0.05,N,0.09,K,A*31
$GNGST,001830.20,1.715,,,,10.363,4.650,32.240*6A
$GNZDA,001830.20,14,07,2025,00,00*77
$GNEBP,,,,,,M*13
$GNRMC,001831.20,A,4915.6193215,N,12315.3388293,W,0.04,,140725,,,A*4A
$GNGGA,001831.20,4915.6193215,N,12315.3388293,W,1,05,4.3,75.750,M,-19.035,M,0.0,*58
$GPGSA,A,3,01,03,28,,,,,,,,,,21.1,4.3,20.6*3B
$GLGSA,A,3,71,,,,,,,,,,,,21.1,4.3,20.6*29
$GAGSA,A,3,29,,,,,,,,,,,,21.1,4.3,20.6*29
$GBGSA,A,3,,,,,,,,,,,,,21.1,4.3,20.6*21
$GPGSV,1,1,03,01,51,232,39,03,60,302,36,28,52,070,37,,,,*49
$GLGSV,1,1,01,71,57,050,35,,,,,,,,,,,,*53
$GAGSV,1,1,01,29,48,251,38,,,,,,,,,,,,*53
$GNVTG,,T,,M,0.04,N,0.07,K,A*3E
$GNGST,001831.20,1.342,,,,10.363,4.650,32.240*6D
$GNZDA,001831.20,14,07,2025,00,00*76
$GNEBP,,,,,,M*13
$GNRMC,001832.20,A,4915.6193328,N,12315.3388315,W,0.10,,140725,,,A*4C
$GNGGA,001832.20,4915.6193328,N,12315.3388315,W,1,05,4.3,75.743,M,-19.035,M,0.0,*59
$GPGSA,A,3,01,03,28,,,,,,,,,,21.1,4.3,20.7*3A
$GLGSA,A,3,71,,,,,,,,,,,,21.1,4.3,20.7*28
$GAGSA,A,3,29,,,,,,,,,,,,21.1,4.3,20.7*28
$GBGSA,A,3,,,,,,,,,,,,,21.1,4.3,20.7*20
$GPGSV,1,1,03,01,51,232,39,03,60,302,37,28,52,070,37,,,,*48
$GLGSV,1,1,01,71,57,050,36,,,,,,,,,,,,*50
$GAGSV,1,1,01,29,48,251,38,,,,,,,,,,,,*53
$GNVTG,,T,,M,0.10,N,0.19,K,A*34
$GNGST,001832.20,1.198,,,,10.363,4.650,32.240*6B
$GNZDA,001832.20,14,07,2025,00,00*75
$GNEBP,,,,,,M*13
$GNRMC,001833.20,A,4915.6193160,N,12315.3388268,W,0.09,,140725,,,A*40
$GNGGA,001833.20,4915.6193160,N,12315.3388268,W,1,05,4.3,75.925,M,-19.035,M,0.0,*53
$GPGSA,A,3,01,03,28,,,,,,,,,,21.1,4.3,20.7*3A
$GLGSA,A,3,71,,,,,,,,,,,,21.1,4.3,20.7*28
$GAGSA,A,3,29,,,,,,,,,,,,21.1,4.3,20.7*28
$GBGSA,A,3,,,,,,,,,,,,,21.1,4.3,20.7*20
$GPGSV,1,1,03,01,51,232,39,03,60,302,36,28,52,070,37,,,,*49
$GLGSV,1,1,01,71,57,050,36,,,,,,,,,,,,*50
$GAGSV,1,1,01,29,48,251,38,,,,,,,,,,,,*53
$GNVTG,,T,,M,0.09,N,0.16,K,A*33
$GNGST,001833.20,1.333,,,,10.363,4.650,32.240*69
$GNZDA,001833.20,14,07,2025,00,00*74
$GNEBP,,,,,,M*13
$GNRMC,001834.20,A,4915.6193138,N,12315.3388241,W,0.07,,140725,,,A*4F
$GNGGA,001834.20,4915.6193138,N,12315.3388241,W,1,05,4.3,75.895,M,-19.035,M,0.0,*58
$GPGSA,A,3,01,03,28,,,,,,,,,,21.1,4.3,20.7*3A
$GLGSA,A,3,71,,,,,,,,,,,,21.1,4.3,20.7*28
$GAGSA,A,3,29,,,,,,,,,,,,21.1,4.3,20.7*28
$GBGSA,A,3,,,,,,,,,,,,,21.1,4.3,20.7*20
$GPGSV,1,1,03,01,51,232,39,03,60,302,36,28,52,070,37,,,,*49
$GLGSV,1,1,01,71,57,050,36,,,,,,,,,,,,*50
$GAGSV,1,1,01,29,48,251,38,,,,,,,,,,,,*53
$GNVTG,,T,,M,0.07,N,0.13,K,A*38
$GNGST,001834.20,1.543,,,,10.363,4.650,32.240*6F
$GNZDA,001834.20,14,07,2025,00,00*73
$GNEBP,,,,,,M*13
$GNRMC,001835.20,A,4915.6193126,N,12315.3388301,W,0.17,,140725,,,A*45
$GNGGA,001835.20,4915.6193126,N,12315.3388301,W,1,05,4.4,75.883,M,-19.035,M,0.0,*53
$GPGSA,A,3,01,03,28,,,,,,,,,,21.1,4.4,20.7*3D
$GLGSA,A,3,71,,,,,,,,,,,,21.1,4.4,20.7*2F
$GAGSA,A,3,29,,,,,,,,,,,,21.1,4.4,20.7*2F
$GBGSA,A,3,,,,,,,,,,,,,21.1,4.4,20.7*27
$GPGSV,1,1,03,01,51,232,39,03,60,302,36,28,52,070,37,,,,*49
$GLGSV,1,1,01,71,57,051,35,,,,,,,,,,,,*52
$GAGSV,1,1,01,29,48,251,38,,,,,,,,,,,,*53
$GNVTG,,T,,M,0.17,N,0.32,K,A*3A
$GNGST,001835.20,1.288,,,,10.363,4.650,32.240*6E
$GNZDA,001835.20,14,07,2025,00,00*72
$GNEBP,,,,,,M*13
$GNRMC,001836.20,A,4915.6193118,N,12315.3388284,W,0.01,,140725,,,A*40
$GNGGA,001836.20,4915.6193118,N,12315.3388284,W,1,05,4.4,75.903,M,-19.035,M,0.0,*58
$GPGSA,A,3,01,03,28,,,,,,,,,,21.2,4.4,20.7*3E
$GLGSA,A,3,71,,,,,,,,,,,,21.2,4.4,20.7*2C
$GAGSA,A,3,29,,,,,,,,,,,,21.2,4.4,20.7*2C
$GBGSA,A,3,,,,,,,,,,,,,21.2,4.4,20.7*24
$GPGSV,1,1,03,01,51,232,39,03,60,302,36,28,52,070,37,,,,*49
$GLGSV,1,1,01,71,57,051,35,,,,,,,,,,,,*52
$GAGSV,1,1,01,29,48,251,38,,,,,,,,,,,,*53
$GNVTG,,T,,M,0.01,N,0.02,K,A*3E
$GNGST,001836.20,1.364,,,,10.363,4.650,32.240*6E
$GNZDA,001836.20,14,07,2025,00,00*71
$GNEBP,,,,,,M*13
$GNRMC,001837.20,A,4915.6193085,N,12315.3388321,W,0.06,,140725,,,A*4D
$GNGGA,001837.20,4915.6193085,N,12315.3388321,W,1,05,4.4,75.912,M,-19.035,M,0.0,*52
$GPGSA,A,3,01,03,28,,,,,,,,,,21.2,4.4,20.7*3E
$GLGSA,A,3,71,,,,,,,,,,,,21.2,4.4,20.7*2C
$GAGSA,A,3,29,,,,,,,,,,,,21.2,4.4,20.7*2C
$GBGSA,A,3,,,,,,,,,,,,,21.2,4.4,20.7*24
$GPGSV,1,1,03,01,51,232,38,03,60,302,36,28,52,070,37,,,,*48
$GLGSV,1,1,01,71,57,051,35,,,,,,,,,,,,*52
$GAGSV,1,1,01,29,48,251,38,,,,,,,,,,,,*53
$GNVTG,,T,,M,0.06,N,0.12,K,A*38
$GNGST,001837.20,1.639,,,,10.363,4.650,32.240*62
$GNZDA,001837.20,14,07,2025,00,00*70
$GNEBP,,,,,,M*13
$GNRMC,001838.20,A,4915.6193071,N,12315.3388336,W,0.15,,140725,,,A*4D
$GNGGA,001838.20,4915.6193071,N,12315.3388336,W,1,05,4.4,75.971,M,-19.035,M,0.0,*55
$GPGSA,A,3,01,03,28,,,,,,,,,,21.2,4.4,20.7*3E
$GLGSA,A,3,71,,,,,,,,,,,,21.2,4.4,20.7*2C
$GAGSA,A,3,29,,,,,,,,,,,,21.2,4.4,20.7*2C
$GBGSA,A,3,,,,,,,,,,,,,21.2,4.4,20.7*24
$GPGSV,1,1,03,01,51,232,38,03,60,302,37,28,52,070,37,,,,*49
$GLGSV,1,1,01,71,57,051,35,,,,,,,,,,,,*52
$GAGSV,1,1,01,29,48,251,38,,,,,,,,,,,,*53
$GNVTG,,T,,M,0.15,N,0.27,K,A*3C
$GNGST,001838.20,1.954,,,,10.363,4.650,32.240*69
$GNZDA,001838.20,14,07,2025,00,00*7F
$GNEBP,,,,,,M*13
$GNRMC,001839.20,A,4915.6193011,N,12315.3388262,W,0.03,,140725,,,A*4D
$GNGGA,001839.20,4915.6193011,N,12315.3388262,W,1,05,4.4,76.021,M,-19.035,M,0.0,*5D
$GPGSA,A,3,01,03,28,,,,,,,,,,21.2,4.4,20.7*3E
$GLGSA,A,3,71,,,,,,,,,,,,21.2,4.4,20.7*2C
$GAGSA,A,3,29,,,,,,,,,,,,21.2,4.4,20.7*2C
$GBGSA,A,3,,,,,,,,,,,,,21.2,4.4,20.7*24
$GPGSV,1,1,03,01,51,232,38,03,60,302,37,28,52,070,38,,,,*46
$GLGSV,1,1,01,71,57,051,35,,,,,,,,,,,,*52
$GAGSV,1,1,01,29,48,251,38,,,,,,,,,,,,*53
$GNVTG,,T,,M,0.03,N,0.06,K,A*38
$GNGST,001839.20,2.279,,,,10.363,4.650,32.240*6F
$GNZDA,001839.20,14,07,2025,00,00*7E
$GNEBP,,,,,,M*13
$GNRMC,001840.20,A,4915.6192975,N,12315.3388233,W,0.03,,140725,,,A*4D
$GNGGA,001840.20,4915.6192975,N,12315.3388233,W,1,05,4.4,76.150,M,-19.035,M,0.0,*5A
$GPGSA,A,3,01,03,28,,,,,,,,,,21.2,4.4,20.7*3E
$GLGSA,A,3,71,,,,,,,,,,,,21.2,4.4,20.7*2C
$GAGSA,A,3,29,,,,,,,,,,,,21.2,4.4,20.7*2C
$GBGSA,A,3,,,,,,,,,,,,,21.2,4.4,20.7*24
$GPGSV,1,1,03,01,51,232,38,03,60,302,36,28,52,070,38,,,,*47
$GLGSV,1,1,01,71,57,051,35,,,,,,,,,,,,*52
$GAGSV,1,1,01,29,48,251,38,,,,,,,,,,,,*53
$GNVTG,,T,,M,0.03,N,0.05,K,A*3B
$GNGST,001840.20,2.465,,,,10.363,4.650,32.240*6A
$GNZDA,001840.20,14,07,2025,00,00*70
$GNEBP,,,,,,M*13
$GNRMC,001841.20,A,4915.6192920,N,12315.3388201,W,0.13,,140725,,,A*4C
$GNGGA,001841.20,4915.6192920,N,12315.3388201,W,1,05,4.4,76.197,M,-19.035,M,0.0,*51
$GPGSA,A,3,01,03,28,,,,,,,,,,21.2,4.4,20.8*31
$GLGSA,A,3,71,,,,,,,,,,,,21.2,4.4,20.8*23
$GAGSA,A,3,29,,,,,,,,,,,,21.2,4.4,20.8*23
$GBGSA,A,3,,,,,,,,,,,,,21.2,4.4,20.8*2B
$GPGSV,1,1,03,01,51,232,38,03,60,302,36,28,52,070,38,,,,*47
$GLGSV,1,1,01,71,57,051,35,,,,,,,,,,,,*52
$GAGSV,1,1,01,29,48,251,38,,,,,,,,,,,,*53
$GNVTG,,T,,M,0.13,N,0.25,K,A*38
$GNGST,001841.20,2.635,,,,10.363,4.650,32.240*6C
$GNZDA,001841.20,14,07,2025,00,00*71
$GNEBP,,,,,,M*13
$GNRMC,001842.20,A,4915.6192900,N,12315.3388216,W,0.05,,140725,,,A*4C
$GNGGA,001842.20,4915.6192900,N,12315.3388216,W,1,05,4.4,76.234,M,-19.035,M,0.0,*5C
$GPGSA,A,3,01,03,28,,,,,,,,,,21.2,4.4,20.8*31
$GLGSA,A,3,71,,,,,,,,,,,,21.2,4.4,20.8*23
$GAGSA,A,3,29,,,,,,,,,,,,21.2,4.4,20.8*23
$GBGSA,A,3,,,,,,,,,,,,,21.2,4.4,20.8*2B
$GPGSV,1,1,03,01,51,232,38,03,60,302,36,28,52,070,38,,,,*47
$GLGSV,1,1,01,71,57,051,35,,,,,,,,,,,,*52
$GAGSV,1,1,01,29,48,251,38,,,,,,,,,,,,*53
$GNVTG,,T,,M,0.05,N,0.09,K,A*31
$GNGST,001842.20,2.959,,,,10.363,4.650,32.240*6A
$GNZDA,001842.20,14,07,2025,00,00*72
$GNEBP,,,,,,M*13
$GNRMC,001843.20,A,4915.6192900,N,12315.3388228,W,0.14,,140725,,,A*40
$GNGGA,001843.20,4915.6192900,N,12315.3388228,W,1,05,4.4,76.258,M,-19.035,M,0.0,*5A
$GPGSA,A,3,01,03,28,,,,,,,,,,21.2,4.4,20.8*31
$GLGSA,A,3,71,,,,,,,,,,,,21.2,4.4,20.8*23
$GAGSA,A,3,29,,,,,,,,,,,,21.2,4.4,20.8*23
$GBGSA,A,3,,,,,,,,,,,,,21.2,4.4,20.8*2B
$GPGSV,1,1,03,01,51,232,38,03,60,302,36,28,52,070,38,,,,*47
$GLGSV,1,1,01,71,57,051,35,,,,,,,,,,,,*52
$GAGSV,1,1,01,29,48,251,38,,,,,,,,,,,,*53
$GNVTG,,T,,M,0.14,N,0.25,K,A*3F
$GNGST,001843.20,3.465,,,,10.363,4.650,32.240*68
$GNZDA,001843.20,14,07,2025,00,00*73
$GNEBP,,,,,,M*13
$GNRMC,001844.20,A,4915.6192826,N,12315.3388240,W,0.05,,140725,,,A*4C
$GNGGA,001844.20,4915.6192826,N,12315.3388240,W,1,05,4.4,76.285,M,-19.035,M,0.0,*56
$GPGSA,A,3,01,03,28,,,,,,,,,,21.3,4.4,20.8*30
$GLGSA,A,3,71,,,,,,,,,,,,21.3,4.4,20.8*22
$GAGSA,A,3,29,,,,,,,,,,,,21.3,4.4,20.8*22
$GBGSA,A,3,,,,,,,,,,,,,21.3,4.4,20.8*2A
$GPGSV,1,1,03,01,51,232,38,03,60,302,36,28,52,070,38,,,,*47
$GLGSV,1,1,01,71,57,051,35,,,,,,,,,,,,*52
$GAGSV,1,1,01,29,48,251,38,,,,,,,,,,,,*53
$GNVTG,,T,,M,0.05,N,0.09,K,A*31
$GNGST,001844.20,3.467,,,,10.363,4.650,32.240*6D
$GNZDA,001844.20,14,07,2025,00,00*74
$GNEBP,,,,,,M*13
$GNRMC,001845.20,A,4915.6192837,N,12315.3388259,W,0.08,,140725,,,A*48
$GNGGA,001845.20,4915.6192837,N,12315.3388259,W,1,05,4.4,76.291,M,-19.035,M,0.0,*5A
$GPGSA,A,3,01,03,28,,,,,,,,,,21.3,4.4,20.8*30
$GLGSA,A,3,71,,,,,,,,,,,,21.3,4.4,20.8*22
$GAGSA,A,3,29,,,,,,,,,,,,21.3,4.4,20.8*22
$GBGSA,A,3,,,,,,,,,,,,,21.3,4.4,20.8*2A
$GPGSV,1,1,03,01,51,232,38,03,60,302,36,28,52,070,38,,,,*47
$GLGSV,1,1,01,71,57,051,35,,,,,,,,,,,,*52
$GAGSV,1,1,01,29,48,251,38,,,,,,,,,,,,*53
$GNVTG,,T,,M,0.08,N,0.14,K,A*30
$GNGST,001845.20,3.049,,,,10.363,4.650,32.240*64
$GNZDA,001845.20,14,07,2025,00,00*75
$GNEBP,,,,,,M*13
$GNRMC,001846.20,A,4915.6192791,N,12315.3388275,W,0.08,,140725,,,A*46
$GNGGA,001846.20,4915.6192791,N,12315.3388275,W,1,05,4.4,76.380,M,-19.035,M,0.0,*55
$GPGSA,A,3,01,03,28,,,,,,,,,,21.3,4.4,20.8*30
$GLGSA,A,3,71,,,,,,,,,,,,21.3,4.4,20.8*22
$GAGSA,A,3,29,,,,,,,,,,,,21.3,4.4,20.8*22
$GBGSA,A,3,,,,,,,,,,,,,21.3,4.4,20.8*2A
$GPGSV,1,1,03,01,51,232,38,03,60,302,36,28,52,070,38,,,,*47
$GLGSV,1,1,01,71,57,051,35,,,,,,,,,,,,*52
$GAGSV,1,1,01,29,48,251,38,,,,,,,,,,,,*53
$GNVTG,,T,,M,0.08,N,0.15,K,A*31
$GNGST,001846.20,2.989,,,,10.363,4.650,32.240*63
$GNZDA,001846.20,14,07,2025,00,00*76
$GNEBP,,,,,,M*13
$GNRMC,001847.20,A,4915.6192768,N,12315.3388269,W,0.02,,140725,,,A*46
$GNGGA,001847.20,4915.6192768,N,12315.3388269,W,1,05,4.4,76.399,M,-19.035,M,0.0,*57
$GPGSA,A,3,01,03,28,,,,,,,,,,21.3,4.4,20.8*30
$GLGSA,A,3,71,,,,,,,,,,,,21.3,4.4,20.8*22
$GAGSA,A,3,29,,,,,,,,,,,,21.3,4.4,20.8*22
$GBGSA,A,3,,,,,,,,,,,,,21.3,4.4,20.8*2A
$GPGSV,1,1,03,01,51,232,38,03,60,302,36,28,52,070,38,,,,*47
$GLGSV,1,1,01,71,57,051,36,,,,,,,,,,,,*51
$GAGSV,1,1,01,29,48,251,38,,,,,,,,,,,,*53
$GNVTG,,T,,M,0.02,N,0.04,K,A*3B
$GNGST,001847.20,3.017,,,,10.363,4.650,32.240*6D
$GNZDA,001847.20,14,07,2025,00,00*77
$GNEBP,,,,,,M*13
$GNRMC,001848.20,A,4915.6192714,N,12315.3388262,W,0.07,,140725,,,A*4C
$GNGGA,001848.20,4915.6192714,N,12315.3388262,W,1,05,4.4,76.471,M,-19.035,M,0.0,*59
$GPGSA,A,3,01,03,28,,,,,,,,,,21.3,4.4,20.8*30
$GLGSA,A,3,71,,,,,,,,,,,,21.3,4.4,20.8*22
$GAGSA,A,3,29,,,,,,,,,,,,21.3,4.4,20.8*22
$GBGSA,A,3,,,,,,,,,,,,,21.3,4.4,20.8*2A
$GPGSV,1,1,03,01,51,232,38,03,60,302,36,28,52,070,38,,,,*47
$GLGSV,1,1,01,71,57,051,36,,,,,,,,,,,,*51
$GAGSV,1,1,01,29,48,251,38,,,,,,,,,,,,*53
$GNVTG,,T,,M,0.07,N,0.13,K,A*38
$GNGST,001848.20,2.847,,,,10.363,4.650,32.240*6E
$GNZDA,001848.20,14,07,2025,00,00*78
$GNEBP,,,,,,M*13
$GNRMC,001849.20,A,4915.6192680,N,12315.3388254,W,0.03,,140725,,,A*40
$GNGGA,001849.20,4915.6192680,N,12315.3388254,W,1,05,4.4,76.459,M,-19.035,M,0.0,*5B
$GPGSA,A,3,01,03,28,,,,,,,,,,21.3,4.4,20.9*31
$GLGSA,A,3,71,,,,,,,,,,,,21.3,4.4,20.9*23
$GAGSA,A,3,29,,,,,,,,,,,,21.3,4.4,20.9*23
$GBGSA,A,3,,,,,,,,,,,,,21.3,4.4,20.9*2B
$GPGSV,1,1,03,01,51,232,38,03,60,302,36,28,52,070,38,,,,*47
$GLGSV,1,1,01,71,57,051,36,,,,,,,,,,,,*51
$GAGSV,1,1,01,29,48,251,38,,,,,,,,,,,,*53
$GNVTG,,T,,M,0.03,N,0.06,K,A*38
$GNGST,001849.20,2.524,,,,10.363,4.650,32.240*67
$GNZDA,001849.20,14,07,2025,00,00*79
$GNEBP,,,,,,M*13
$GNRMC,001850.20,A,4915.6192567,N,12315.3388194,W,0.28,,140725,,,A*44
$GNGGA,001850.20,4915.6192567,N,12315.3388194,W,1,05,4.4,76.601,M,-19.035,M,0.0,*59
$GPGSA,A,3,01,03,28,,,,,,,,,,21.3,4.4,20.9*31
$GLGSA,A,3,71,,,,,,,,,,,,21.3,4.4,20.9*23
$GAGSA,A,3,29,,,,,,,,,,,,21.3,4.4,20.9*23
$GBGSA,A,3,,,,,,,,,,,,,21.3,4.4,20.9*2B
$GPGSV,1,1,03,01,51,232,38,03,60,302,36,28,52,070,38,,,,*47
$GLGSV,1,1,01,71,57,051,36,,,,,,,,,,,,*51
$GAGSV,1,1,01,29,48,251,38,,,,,,,,,,,,*53
$GNVTG,,T,,M,0.28,N,0.52,K,A*30
$GNGST,001850.20,2.767,,,,10.363,4.650,32.240*6A
$GNZDA,001850.20,14,07,2025,00,00*71
$GNEBP,,,,,,M*13
$GNRMC,001851.20,A,4915.6192591,N,12315.3388192,W,0.02,,140725,,,A*42
$GNGGA,001851.20,4915.6192591,N,12315.3388192,W,1,05,4.4,76.622,M,-19.035,M,0.0,*56
$GPGSA,A,3,01,03,28,,,,,,,,,,21.3,4.4,20.9*31
$GLGSA,A,3,71,,,,,,,,,,,,21.3,4.4,20.9*23
$GAGSA,A,3,29,,,,,,,,,,,,21.3,4.4,20.9*23
$GBGSA,A,3,,,,,,,,,,,,,21.3,4.4,20.9*2B
$GPGSV,1,1,03,01,51,232,38,03,60,302,36,28,52,070,38,,,,*47
$GLGSV,1,1,01,71,57,051,36,,,,,,,,,,,,*51
$GAGSV,1,1,01,29,48,251,38,,,,,,,,,,,,*53
$GNVTG,,T,,M,0.02,N,0.03,K,A*3C
$GNGST,001851.20,2.558,,,,10.363,4.650,32.240*65
$GNZDA,001851.20,14,07,2025,00,00*70
$GNEBP,,,,,,M*13
$GNRMC,001852.20,A,4915.6169514,N,12315.3397924,W,0.09,,140725,,,A*48
$GNGGA,001852.20,4915.6169514,N,12315.3397924,W,1,06,2.7,102.896,M,-19.035,M,0.0,*62
$GPGSA,A,3,01,03,28,,,,,,,,,,7.9,2.7,7.5*33
$GLGSA,A,3,71,,,,,,,,,,,,7.9,2.7,7.5*21
$GAGSA,A,3,07,29,,,,,,,,,,,7.9,2.7,7.5*26
$GBGSA,A,3,,,,,,,,,,,,,7.9,2.7,7.5*29
$GPGSV,1,1,03,01,51,232,38,03,60,302,36,28,52,070,38,,,,*47
$GLGSV,1,1,01,71,57,051,36,,,,,,,,,,,,*51
$GAGSV,1,1,02,07,73,056,35,29,48,251,38,,,,,,,,*66
$GNVTG,,T,,M,0.09,N,0.16,K,A*33
$GNGST,001852.20,0.000,,,,10.430,4.677,32.385*60
$GNZDA,001852.20,14,07,2025,00,00*73
$GNEBP,,,,,,M*13
$GNRMC,001853.20,A,4915.6170160,N,12315.3399192,W,0.01,,140725,,,A*45
$GNGGA,001853.20,4915.6170160,N,12315.3399192,W,1,05,4.4,103.045,M,-19.035,M,0.0,*66
$GPGSA,A,3,01,03,28,,,,,,,,,,21.4,4.4,20.9*36
$GLGSA,A,3,71,,,,,,,,,,,,21.4,4.4,20.9*24
$GAGSA,A,3,29,,,,,,,,,,,,21.4,4.4,20.9*24
$GBGSA,A,3,,,,,,,,,,,,,21.4,4.4,20.9*2C
$GPGSV,1,1,03,01,51,232,38,03,60,302,36,28,52,070,38,,,,*47
$GLGSV,1,1,01,71,57,051,36,,,,,,,,,,,,*51
$GAGSV,1,1,01,29,48,251,38,,,,,,,,,,,,*53
$GNVTG,,T,,M,0.01,N,0.03,K,A*3F
$GNGST,001853.20,2.433,,,,10.432,4.677,32.389*69
$GNZDA,001853.20,14,07,2025,00,00*72
$GNEBP,,,,,,M*13
$GNRMC,001854.20,A,4915.6170063,N,12315.3399147,W,0.02,,140725,,,A*4B
$GNGGA,001854.20,4915.6170063,N,12315.3399147,W,1,05,4.4,103.090,M,-19.035,M,0.0,*63
$GPGSA,A,3,01,03,28,,,,,,,,,,21.4,4.4,20.9*36
$GLGSA,A,3,71,,,,,,,,,,,,21.4,4.4,20.9*24
$GAGSA,A,3,29,,,,,,,,,,,,21.4,4.4,20.9*24
$GBGSA,A,3,,,,,,,,,,,,,21.4,4.4,20.9*2C
$GPGSV,1,1,03,01,51,232,39,03,60,302,36,28,52,070,39,,,,*47
$GLGSV,1,1,01,71,57,051,36,,,,,,,,,,,,*51
$GAGSV,1,1,01,29,48,251,38,,,,,,,,,,,,*53
$GNVTG,,T,,M,0.02,N,0.03,K,A*3C
$GNGST,001854.20,2.292,,,,10.432,4.677,32.389*63
$GNZDA,001854.20,14,07,2025,00,00*75
$GNEBP,,,,,,M*13
$GNRMC,001855.20,A,4915.6170018,N,12315.3399104,W,0.06,,140725,,,A*45
$GNGGA,001855.20,4915.6170018,N,12315.3399104,W,1,05,4.4,103.139,M,-19.035,M,0.0,*6B
$GPGSA,A,3,01,03,28,,,,,,,,,,21.4,4.4,20.9*36
$GLGSA,A,3,71,,,,,,,,,,,,21.4,4.4,20.9*24
$GAGSA,A,3,29,,,,,,,,,,,,21.4,4.4,20.9*24
$GBGSA,A,3,,,,,,,,,,,,,21.4,4.4,20.9*2C
$GPGSV,1,1,03,01,51,232,39,03,60,302,36,28,52,070,39,,,,*47
$GLGSV,1,1,01,71,57,051,36,,,,,,,,,,,,*51
$GAGSV,1,1,01,29,48,251,38,,,,,,,,,,,,*53
$GNVTG,,T,,M,0.06,N,0.11,K,A*3B
$GNGST,001855.20,2.313,,,,10.432,4.677,32.389*6A
$GNZDA,001855.20,14,07,2025,00,00*74
$GNEBP,,,,,,M*13
$GNRMC,001856.20,A,4915.6169970,N,12315.3399099,W,0.14,,140725,,,A*4F
$GNGGA,001856.20,4915.6169970,N,12315.3399099,W,1,05,4.4,103.129,M,-19.035,M,0.0,*63
$GPGSA,A,3,01,03,28,,,,,,,,,,21.4,4.4,20.9*36
$GLGSA,A,3,71,,,,,,,,,,,,21.4,4.4,20.9*24
$GAGSA,A,3,29,,,,,,,,,,,,21.4,4.4,20.9*24
$GBGSA,A,3,,,,,,,,,,,,,21.4,4.4,20.9*2C
$GPGSV,1,1,03,01,51,232,39,03,60,302,36,28,52,070,39,,,,*47
$GLGSV,1,1,01,71,57,051,36,,,,,,,,,,,,*51
$GAGSV,1,1,01,29,48,251,38,,,,,,,,,,,,*53
$GNVTG,,T,,M,0.14,N,0.26,K,A*3C
$GNGST,001856.20,2.393,,,,10.432,4.677,32.389*61
$GNZDA,001856.20,14,07,2025,00,00*77
$GNEBP,,,,,,M*13
$GNRMC,001857.20,A,4915.6169874,N,12315.3399063,W,0.20,,140725,,,A*49
$GNGGA,001857.20,4915.6169874,N,12315.3399063,W,1,05,4.5,103.183,M,-19.035,M,0.0,*63
$GPGSA,A,3,01,03,28,,,,,,,,,,21.4,4.5,20.9*37
